City ID,City,Lat,lng,Max Temp,Humidity,Cloudiness,Wind Speed,Country,Date
0,upernavik,72.7868,-56.1549,18.7,76,90,2.15,GL,1612657442
1,butaritari,3.0707,172.7902,81.21,80,92,20.56,KI,1612657726
2,puerto baquerizo moreno,-0.9,-89.6,77.13,82,31,8.41,EC,1612657726
3,punta arenas,-53.15,-70.9167,53.6,62,0,18.41,CL,1612657727
4,yellowknife,62.456,-114.3525,-36.4,67,1,2.3,CA,1612657691
5,atasu,48.6814,71.6433,24.15,96,91,25.23,KZ,1612657727
6,khatanga,71.9667,102.5,-35.75,78,0,8.12,RU,1612657727
7,kapaa,22.0752,-159.319,71.6,53,75,5.75,US,1612657439
8,new norfolk,-42.7826,147.0587,68.0,52,63,3.0,AU,1612657457
9,nikolskoye,59.7035,30.7861,10.4,79,40,15.66,RU,1612657540
10,atuona,-9.8,-139.0333,80.28,76,83,19.39,PF,1612657727
11,tra vinh,9.9347,106.3453,76.42,76,90,4.97,VN,1612657727
12,le vauclin,14.5452,-60.8388,73.4,100,75,12.66,MQ,1612657727
13,fairbanks,64.8378,-147.7164,-5.01,77,90,0.76,US,1612657727
14,seymchan,62.8833,152.4333,-15.92,84,99,2.66,RU,1612657728
15,kahului,20.8947,-156.47,78.8,47,20,10.36,US,1612657475
16,kaitangata,-46.2817,169.8464,64.99,73,3,7.0,NZ,1612657728
17,rikitea,-23.1203,-134.9692,78.71,66,100,11.23,PF,1612657728
18,avarua,-21.2078,-159.775,86.0,70,69,11.5,CK,1612657537
19,laibin,23.7,109.2667,64.8,70,0,3.33,CN,1612657728
20,brae,60.3964,-1.353,33.8,64,40,17.27,GB,1612657728
21,yenagoa,4.9247,6.2642,79.48,88,4,4.61,NG,1612657728
22,quatre cocos,-20.2078,57.7625,77.0,83,40,4.61,MU,1612657728
23,carnarvon,-24.8667,113.6333,82.4,100,75,14.97,AU,1612657728
24,albany,42.6001,-73.9662,28.0,41,5,4.88,US,1612657633
25,ribeira grande,38.5167,-28.7,61.05,87,98,22.12,PT,1612657562
26,pisco,-13.7,-76.2167,73.4,78,75,9.22,PE,1612657729
27,torbay,47.6666,-52.7314,45.0,100,90,18.41,CA,1612657729
28,ushuaia,-54.8,-68.3,51.8,76,40,18.41,AR,1612657580
29,isangel,-19.55,169.2667,86.0,79,20,5.75,VU,1612657493
30,hithadhoo,-0.6,73.0833,81.75,74,22,13.33,MV,1612657447
31,castro,-24.7911,-50.0119,61.12,92,0,10.29,BR,1612657453
32,ilulissat,69.2167,-51.1,26.6,33,0,26.46,GL,1612657729
33,bouar,5.934,15.596,67.82,28,33,5.12,CF,1612657729
34,mataura,-46.1927,168.8643,77.25,50,0,2.44,NZ,1612657729
35,thompson,55.7435,-97.8558,-27.4,68,75,13.8,CA,1612657585
36,tateyama,34.9833,139.8667,55.4,62,20,6.91,JP,1612657556
37,codrington,-38.2667,141.9667,59.0,68,100,11.81,AU,1612657730
38,pemba,-12.974,40.5178,80.6,94,40,3.44,MZ,1612657730
39,leningradskiy,69.3833,178.4167,-9.99,74,0,6.04,RU,1612657564
40,chokurdakh,70.6333,147.9167,-22.81,86,38,3.33,RU,1612657450
41,te anau,-45.4167,167.7167,73.13,43,4,3.36,NZ,1612657730
42,muravlenko,63.7898,74.523,2.16,94,100,18.37,RU,1612657730
43,teknaf,20.8624,92.3058,60.6,63,0,6.06,BD,1612657643
44,hobart,-42.8794,147.3294,68.0,67,75,16.11,AU,1612657604
45,hilo,19.7297,-155.09,78.8,47,40,9.22,US,1612657730
46,broome,42.2506,-75.833,24.8,33,1,3.44,US,1612657469
47,bluff,-46.6,168.3333,61.34,68,2,6.4,NZ,1612657559
48,barrow,71.2906,-156.7887,-5.8,77,1,14.97,US,1612657502
49,ipora,-16.4419,-51.1178,69.94,97,100,4.25,BR,1612657731
50,nattam,10.2333,78.2333,69.8,78,0,4.61,IN,1612657731
51,soe,-9.8607,124.284,73.4,85,94,7.0,ID,1612657731
52,mar del plata,-38.0023,-57.5575,64.0,77,20,10.36,AR,1612657731
53,bereda,43.2686,-7.5406,37.0,100,62,1.99,ES,1612657731
54,dullewala,31.8359,71.4362,52.57,56,0,1.03,PK,1612657731
55,yulara,-25.2406,130.9889,82.4,26,1,21.85,AU,1612657731
56,thaba-tseka,-29.522,28.6084,56.41,81,99,1.14,LS,1612657732
57,asau,46.4333,26.4,27.0,73,100,3.67,RO,1612657516
58,beloha,-25.1667,45.05,74.5,95,12,4.97,MG,1612657474
59,dikson,73.5069,80.5464,-28.52,86,89,9.53,RU,1612657732
60,san jose,37.3394,-121.895,71.01,23,20,6.91,US,1612657645
61,tasiilaq,65.6145,-37.6368,33.8,55,75,28.77,GL,1612657732
62,busselton,-33.65,115.3333,60.01,97,100,3.0,AU,1612657732
63,cayenne,4.9333,-52.3333,77.0,100,75,2.3,GF,1612657732
64,wewak,-3.5534,143.6268,79.79,82,95,6.51,PG,1612657732
65,qaanaaq,77.484,-69.3632,11.03,87,99,7.23,GL,1612657733
66,victoria,22.2855,114.1577,66.99,68,0,7.47,HK,1612657715
67,khash,28.2211,61.2158,42.93,58,0,1.92,IR,1612657733
68,college,64.8569,-147.8028,-5.01,71,90,0.83,US,1612657733
69,santander,43.4647,-3.8044,46.0,87,40,9.22,ES,1612657660
70,luohe,33.5717,114.0353,45.12,54,18,8.84,CN,1612657733
71,acambay,19.9558,-99.8417,66.15,26,2,5.93,MX,1612657733
72,hualmay,-11.0964,-77.6139,71.76,73,97,7.34,PE,1612657733
73,sioux lookout,50.1001,-91.917,-13.0,64,90,11.5,CA,1612657458
74,lebanon,36.2081,-86.2911,44.6,57,90,5.44,US,1612657733
75,soyo,-6.1349,12.3689,79.72,85,98,6.87,AO,1612657510
76,puerto ayora,-0.7393,-90.3518,78.01,93,62,3.0,EC,1612657734
77,chuy,-33.6971,-53.4616,67.64,80,0,10.04,UY,1612657734
78,deputatskiy,69.3,139.9,-34.37,84,1,1.7,RU,1612657461
79,grindavik,63.8424,-22.4338,33.8,64,0,23.02,IS,1612657473
80,bubaque,11.2833,-15.8333,79.77,54,75,19.46,GW,1612657734
81,katobu,-4.9408,122.5276,80.6,84,100,1.74,ID,1612657734
82,rio grande,-32.035,-52.0986,68.0,95,0,7.74,BR,1612657701
83,olafsvik,64.8945,-23.7142,34.21,82,61,15.26,IS,1612657462
84,ambanja,-13.6833,48.45,74.17,89,94,3.2,MG,1612657734
85,hermanus,-34.4187,19.2345,68.0,90,80,2.91,ZA,1612657734
86,poya,-21.35,165.15,83.44,68,15,3.74,NC,1612657735
87,kavieng,-2.5744,150.7967,84.74,65,48,1.3,PG,1612657451
88,karratha,-20.7377,116.8463,80.42,58,13,8.93,AU,1612657735
89,puerto narino,-3.7703,-70.3831,80.6,89,40,4.61,CO,1612657735
90,cabo san lucas,22.8909,-109.9124,75.0,53,20,8.05,MX,1612657735
91,henties bay,-22.116,14.2845,64.0,90,33,1.99,NA,1612657550
92,khuzhir,53.1939,107.3397,9.3,91,100,4.68,RU,1612657735
93,egvekinot,66.3167,-179.1667,-4.2,79,5,8.43,RU,1612657459
94,bethel,41.3712,-73.414,35.6,38,1,4.61,US,1612657536
95,zhigansk,66.7697,123.3711,-38.54,80,97,12.88,RU,1612657735
96,nanortalik,60.1432,-45.2371,24.85,85,32,8.81,GL,1612657736
97,cabedelo,-6.9811,-34.8339,78.8,83,20,4.61,BR,1612657697
98,ciudad guayana,8.3533,-62.6528,77.0,84,100,5.01,VE,1612657736
99,verkhnevilyuysk,63.4453,120.3167,-33.03,83,13,3.11,RU,1612657736
100,balangiga,11.1097,125.3875,80.53,83,98,12.55,PH,1612657736
101,avera,33.194,-82.5271,41.0,90,90,12.66,US,1612657736
102,tiksi,71.6872,128.8694,-25.71,84,100,4.56,RU,1612657736
103,joshimath,30.5667,79.5667,40.33,45,0,13.67,IN,1612657736
104,arraial do cabo,-22.9661,-42.0278,75.58,83,100,5.23,BR,1612657736
105,komsomolskiy,40.4272,71.7189,39.2,60,100,2.3,UZ,1612657604
106,jamestown,42.097,-79.2353,17.6,53,1,6.91,US,1612657495
107,tiarei,-17.5333,-149.3333,86.0,54,20,12.66,PF,1612657737
108,magaria,12.9983,8.9099,64.53,25,91,8.46,NE,1612657577
109,laurel,39.0993,-76.8483,43.0,75,1,3.56,US,1612657737
110,saint-joseph,-21.3667,55.6167,78.8,73,75,6.91,RE,1612657737
111,senneterre,48.3835,-77.2328,12.2,73,75,10.36,CA,1612657737
112,anadyr,64.75,177.4833,-9.0,77,0,6.71,RU,1612657737
113,toyooka,35.5333,134.8333,41.0,81,75,5.75,JP,1612657737
114,kudymkar,59.0173,54.656,-4.72,91,100,9.42,RU,1612657737
115,dinghai,26.2847,119.7936,60.8,88,90,2.24,CN,1612657737
116,bilibino,68.0546,166.4372,-5.6,79,0,2.86,RU,1612657737
117,faanui,-16.4833,-151.75,82.47,66,2,9.19,PF,1612657541
118,severo-kurilsk,50.6789,156.125,21.87,94,99,23.51,RU,1612657724
119,grimshaw,56.1834,-117.6027,-20.2,69,1,9.22,CA,1612657738
120,port alfred,-33.5906,26.891,66.99,88,43,5.01,ZA,1612657582
121,urucara,-2.5364,-57.76,76.71,93,81,3.22,BR,1612657738
122,evanton,57.6638,-4.34,36.0,83,99,5.01,GB,1612657738
123,albert lea,43.648,-93.3683,-4.0,65,1,9.22,US,1612657738
124,lompoc,34.6391,-120.4579,64.0,67,1,9.22,US,1612657451
125,bardiyah,31.7561,25.0865,61.5,56,46,7.23,LY,1612657738
126,bulawayo,-20.15,28.5833,65.23,92,100,8.1,ZW,1612657738
127,sedhiou,12.7081,-15.5569,66.2,68,86,8.34,SN,1612657738
128,airai,-8.9266,125.4092,68.13,88,82,3.51,TL,1612657440
129,constitucion,-35.3333,-72.4167,58.95,86,23,4.27,CL,1612657550
130,hamilton,39.1834,-84.5333,32.0,51,1,3.44,US,1612657739
131,saint-leu,-21.15,55.2833,77.0,61,51,0.2,RE,1612657739
132,bredasdorp,-34.5322,20.0403,69.8,68,68,5.75,ZA,1612657739
133,pevek,69.7008,170.3133,-5.93,88,31,5.46,RU,1612657739
134,warwick,41.7001,-71.4162,37.99,44,75,11.5,US,1612657535
135,tuatapere,-46.1333,167.6833,70.92,47,2,3.2,NZ,1612657618
136,sao gabriel da cachoeira,-0.1303,-67.0892,77.11,83,20,0.43,BR,1612657739
137,moose factory,51.2585,-80.6094,-4.0,71,90,8.05,CA,1612657739
138,krasnoye,49.9145,24.6134,17.6,86,0,11.18,UA,1612657740
139,saryozek,44.3583,77.9753,34.34,85,100,7.25,KZ,1612657493
140,katsuura,35.1333,140.3,53.6,46,0,1.14,JP,1612657546
141,cape town,-33.9258,18.4232,70.0,88,20,9.22,ZA,1612657589
142,pinheiro machado,-31.5783,-53.3811,68.0,70,0,5.99,BR,1612657729
143,matara,5.9485,80.5353,73.98,89,99,4.88,LK,1612657509
144,bazarnyye mataki,54.8833,49.9333,-2.56,92,100,13.11,RU,1612657740
145,muscat,23.6139,58.5922,62.6,72,0,2.3,OM,1612657740
146,erenhot,43.6475,111.9767,2.41,85,26,4.29,CN,1612657740
147,mahebourg,-20.4081,57.7,77.0,83,40,4.61,MU,1612657741
148,tautira,-17.7333,-149.15,86.0,54,20,12.66,PF,1612657741
149,lebu,-37.6167,-73.65,59.18,91,64,2.17,CL,1612657444
150,lorengau,-2.0226,147.2712,85.32,68,98,5.12,PG,1612657741
151,porto novo,6.4965,2.6036,84.2,84,40,14.97,BJ,1612657741
152,gat,31.61,34.7642,55.99,100,1,1.12,IL,1612657741
153,bharatpur,27.2167,77.4833,50.63,48,0,6.2,IN,1612657741
154,north platte,41.1239,-100.7654,10.4,67,90,8.05,US,1612657741
155,norman wells,65.282,-126.8329,-25.6,68,75,2.3,CA,1612657538
156,kabalo,-6.05,26.9167,70.56,94,100,2.8,CD,1612657741
157,cockburn town,21.4612,-71.1419,77.0,78,40,17.27,TC,1612657741
158,kamenka,51.3223,42.7678,7.0,81,99,12.1,RU,1612657742
159,esperance,-33.8667,121.9,60.8,94,90,13.8,AU,1612657742
160,srednekolymsk,67.45,153.6833,-15.34,83,22,0.89,RU,1612657742
161,busembatia,0.7697,33.6131,72.5,68,48,1.68,UG,1612657742
162,kenai,60.5544,-151.2583,18.0,86,90,6.91,US,1612657742
163,husavik,66.0449,-17.3389,32.0,74,75,3.44,IS,1612657742
164,flin flon,54.7682,-101.865,-25.6,62,1,6.91,CA,1612657471
165,east london,-33.0153,27.9116,74.23,92,6,10.96,ZA,1612657444
166,santa maria,-29.6842,-53.8069,68.0,94,0,1.16,BR,1612657474
167,eyl,7.9803,49.8164,74.07,82,12,10.54,SO,1612657743
168,port hedland,-20.3167,118.5667,84.2,61,2,10.36,AU,1612657743
169,honiara,-9.4333,159.95,78.55,86,100,6.64,SB,1612657743
170,coquimbo,-29.9533,-71.3436,60.8,82,0,10.36,CL,1612657743
171,candolim,15.5181,73.7626,71.6,68,48,6.91,IN,1612657743
172,dakar,14.6937,-17.4441,64.4,77,88,13.8,SN,1612657743
173,saint george,37.1041,-113.5841,61.0,14,1,10.36,US,1612657743
174,araouane,18.9048,-3.5265,72.3,25,100,18.12,ML,1612657743
175,georgetown,5.4112,100.3354,80.01,83,20,2.3,MY,1612657743
176,viedma,-40.8135,-62.9967,64.0,68,40,18.77,AR,1612657743
177,bambous virieux,-20.3428,57.7575,77.0,83,40,4.61,MU,1612657744
178,wanning,18.8003,110.3967,67.23,87,7,3.58,CN,1612657485
179,vardo,70.3705,31.1107,27.25,96,100,27.67,NO,1612657744
180,north bend,43.4065,-124.2243,50.0,81,90,4.61,US,1612657616
181,hami,42.8,93.45,30.2,78,22,5.28,CN,1612657744
182,itoman,26.1247,127.6694,69.8,73,20,10.36,JP,1612657744
183,tuktoyaktuk,69.4541,-133.0374,-16.6,76,90,21.85,CA,1612657744
184,kaeo,-35.1,173.7833,69.01,80,99,8.01,NZ,1612657744
185,vaini,-21.2,-175.2,84.2,84,75,12.66,TO,1612657744
186,bastia,42.6667,9.3333,55.0,94,90,2.3,FR,1612657744
187,kijang,35.2442,129.2139,39.2,87,17,1.14,KR,1612657744
188,shu,43.5983,73.7614,37.6,93,100,9.1,KZ,1612657745
189,ambon,-3.6954,128.1814,84.2,79,40,4.61,ID,1612657745
190,saskylakh,71.9167,114.0833,-41.33,78,38,7.45,RU,1612657745
191,saint-philippe,-21.3585,55.7679,78.8,73,75,6.91,RE,1612657552
192,beira,-19.8436,34.8389,82.4,83,40,4.61,MZ,1612657639
193,urengoy,65.9667,78.3667,-16.83,87,92,12.06,RU,1612657745
194,lata,40.1629,-8.3327,51.01,82,27,1.99,PT,1612657461
195,punta cardon,11.6581,-70.215,77.27,78,95,27.25,VE,1612657745
196,springdale,36.1867,-94.1288,39.0,100,75,3.44,US,1612657745
197,vernon,50.2581,-119.2691,37.0,80,100,2.3,CA,1612657745
198,itainopolis,-7.4469,-41.4783,79.54,58,87,3.51,BR,1612657745
199,paita,-5.0892,-81.1144,80.6,65,0,9.22,PE,1612657746
200,bridlington,54.0831,-0.1919,36.0,87,100,17.0,GB,1612657746
201,mehamn,71.0357,27.8492,25.77,93,100,20.8,NO,1612657746
202,kruisfontein,-34.0033,24.7314,64.0,90,22,1.01,ZA,1612657596
203,matiari,25.5961,68.4467,50.0,87,0,1.88,PK,1612657746
204,boende,-0.2167,20.8667,74.53,79,50,1.61,CD,1612657746
205,magdiwang,12.491,122.5135,78.53,82,5,11.56,PH,1612657746
206,rudbar,30.15,62.6,53.69,35,0,3.6,AF,1612657746
207,kodiak,57.79,-152.4072,37.4,60,1,9.22,US,1612657464
208,vestmannaeyjar,63.4427,-20.2734,39.34,72,32,28.9,IS,1612657746
209,ayan,56.45,138.1667,-3.23,90,100,14.85,RU,1612657747
210,nelson bay,-32.7167,152.15,80.01,69,13,8.05,AU,1612657604
211,barra do garcas,-15.89,-52.2567,75.72,87,94,3.42,BR,1612657747
212,aklavik,68.2191,-135.0107,-7.6,71,90,11.5,CA,1612657747
213,vao,-22.6667,167.4833,77.58,81,0,4.52,NC,1612657672
214,porto nacional,-10.7081,-48.4172,77.0,94,75,3.44,BR,1612657747
215,brewster,41.3973,-73.6171,39.2,38,1,4.61,US,1612657747
216,nouadhibou,20.931,-17.0347,60.8,72,0,17.27,MR,1612657629
217,richards bay,-28.783,32.0377,72.91,87,83,9.06,ZA,1612657707
218,souillac,-20.5167,57.5167,77.0,83,40,4.61,MU,1612657544
219,ushtobe,45.2514,77.9838,37.49,77,100,14.18,KZ,1612657747
220,ostrovnoy,68.0531,39.5131,8.42,91,100,9.86,RU,1612657475
221,omsukchan,62.5333,155.8,-5.03,86,100,5.06,RU,1612657747
222,rio branco,-9.9747,-67.81,78.8,100,40,3.44,BR,1612657747
223,san quintin,30.4833,-115.95,63.77,61,0,10.83,MX,1612657748
224,valdivia,-39.8142,-73.2459,64.4,77,1,4.61,CL,1612657748
225,rocha,-34.4833,-54.3333,64.22,93,0,5.59,UY,1612657748
226,vanimo,-2.6741,141.3028,81.09,82,98,5.12,PG,1612657748
227,saldanha,-33.0117,17.9442,64.4,82,13,3.44,ZA,1612657687
228,provideniya,64.3833,-173.3,2.03,89,35,5.1,RU,1612657456
229,krasnyy yar,46.5331,48.3456,24.8,86,90,2.24,RU,1612657748
230,alihe,50.5667,123.7167,-14.04,85,37,3.29,CN,1612657748
231,tazovskiy,67.4667,78.7,-25.56,86,69,10.11,RU,1612657748
232,iquitos,-3.7481,-73.2472,77.0,88,40,1.14,PE,1612657748
233,elko,41.0002,-115.5012,50.0,27,1,18.41,US,1612657748
234,narsaq,60.9167,-46.05,20.32,78,36,2.59,GL,1612657749
235,nkan,0.3833,9.7833,73.4,94,75,8.05,GA,1612657749
236,talnakh,69.4865,88.3972,-29.15,73,0,2.24,RU,1612657671
237,zhezkazgan,47.8043,67.7144,16.81,95,69,16.53,KZ,1612657749
238,buala,-8.145,159.5921,81.1,78,95,8.55,SB,1612657749
239,hofn,64.2539,-15.2082,32.86,91,98,18.59,IS,1612657587
240,steinbach,50.1667,8.5667,43.0,93,90,13.8,DE,1612657749
241,malabo,3.75,8.7833,78.8,83,20,6.91,GQ,1612657749
242,iqaluit,63.7506,-68.5145,26.6,74,90,13.8,CA,1612657607
243,pozo colorado,-23.4923,-58.7972,72.55,58,0,5.7,PY,1612657750
244,mount isa,-20.7333,139.5,77.0,94,75,6.91,AU,1612657595
245,sakakah,29.9697,40.2064,46.4,66,0,11.5,SA,1612657750
246,ambilobe,-13.2,49.05,73.09,93,87,2.89,MG,1612657750
247,touros,-5.1989,-35.4608,78.8,83,20,4.61,BR,1612657564
248,upata,8.0086,-62.3989,77.0,84,100,5.01,VE,1612657750
249,ust-koksa,50.2696,85.6108,16.38,88,9,3.02,RU,1612657750
250,bandarbeyla,9.4942,50.8122,75.06,81,5,11.72,SO,1612657562
251,buchmany,51.0689,28.0421,9.09,89,4,5.55,UA,1612657750
252,kyritz,52.9421,12.397,27.0,61,100,7.0,DE,1612657750
253,cherskiy,68.75,161.3,-5.51,80,0,4.85,RU,1612657542
254,nandigama,16.7833,80.3,68.0,94,3,1.3,IN,1612657751
255,madera,37.1666,-119.8343,68.0,42,1,3.44,US,1612657751
256,beziers,43.3476,3.219,50.0,87,0,14.97,FR,1612657751
257,midland,31.9974,-102.0779,59.0,12,1,3.44,US,1612657629
258,tarko-sale,64.9225,77.785,-6.18,91,100,15.39,RU,1612657751
259,seydi,39.4816,62.9137,47.66,65,100,4.92,TM,1612657751
260,port hardy,50.6996,-127.4199,44.6,75,75,9.22,CA,1612657539
261,olinda,-8.0089,-34.8553,78.8,73,20,6.91,BR,1612657607
262,sabratah,32.7933,12.4885,71.2,23,99,11.83,LY,1612657751
263,jiayuguan,39.8167,98.3,25.72,68,61,2.73,CN,1612657681
264,phalaborwa,-23.943,31.1411,73.4,100,99,1.14,ZA,1612657752
265,beringovskiy,63.05,179.3167,-6.3,89,65,10.94,RU,1612657677
266,goya,-29.14,-59.2626,71.37,51,0,5.5,AR,1612657752
267,kiama,-34.6833,150.8667,80.01,61,2,3.0,AU,1612657752
268,mount gambier,-37.8333,140.7667,60.8,77,90,14.97,AU,1612657752
269,kavaratti,10.5669,72.642,81.16,62,12,10.6,IN,1612657752
270,luanda,-8.8368,13.2343,78.8,83,40,9.22,AO,1612657628
271,taybad,34.74,60.7756,45.19,81,33,7.56,IR,1612657752
272,fortuna,40.5982,-124.1573,53.01,87,1,12.66,US,1612657677
273,yumen,40.2833,97.2,26.74,67,97,1.48,CN,1612657752
274,coihaique,-45.5752,-72.0662,71.6,35,0,18.41,CL,1612657752
275,shingu,33.7333,135.9833,51.8,62,40,6.91,JP,1612657753
276,kita,13.0349,-9.4895,77.92,17,93,5.32,ML,1612657753
277,corinth,37.9407,22.9573,53.01,87,0,3.42,GR,1612657753
278,teguldet,57.3064,88.1667,30.16,97,100,8.5,RU,1612657614
279,longyearbyen,78.2186,15.6401,17.6,79,75,11.5,SJ,1612657493
280,port moresby,-9.4431,147.1797,82.4,78,40,11.5,PG,1612657587
281,owando,-0.4819,15.8999,73.2,91,80,2.62,CG,1612657753
282,verkhnedneprovskiy,54.9813,33.3457,-2.51,92,99,7.72,RU,1612657753
283,svetlaya,46.5389,138.3297,5.43,85,69,8.1,RU,1612657706
284,port keats,-14.25,129.55,83.64,76,80,10.94,AU,1612657753
285,ust-nera,64.5667,143.2,-24.48,75,54,4.99,RU,1612657754
286,green river,41.5286,-109.4662,33.8,40,1,29.93,US,1612657754
287,sile,41.1754,29.6133,51.01,100,29,2.3,TR,1612657754
288,fallon,39.4735,-118.7774,55.4,26,20,6.91,US,1612657744
289,clyde river,70.4692,-68.5914,-9.4,77,75,4.03,CA,1612657754
290,santa cruz,-17.8,-63.1667,84.2,51,20,2.3,BO,1612657754
291,tutoia,-2.7619,-42.2744,80.78,80,15,11.25,BR,1612657754
292,scarborough,54.2797,-0.4044,36.0,89,100,11.01,GB,1612657515
293,havre-saint-pierre,50.2334,-63.5986,30.2,93,90,16.11,CA,1612657754
294,hokitika,-42.7167,170.9667,66.25,68,8,5.75,NZ,1612657611
295,sao filipe,14.8961,-24.4956,69.66,74,38,14.81,CV,1612657755
296,stokmarknes,68.5646,14.9108,30.99,92,57,1.01,NO,1612657755
297,imbituba,-28.24,-48.6703,73.4,73,0,5.75,BR,1612657583
298,laramie,41.3114,-105.5911,28.4,50,90,25.32,US,1612657755
299,zambezi,-13.5432,23.1047,66.52,96,98,7.58,ZM,1612657755
300,ikungi,-5.1333,34.7667,63.27,95,100,0.96,TZ,1612657755
301,bucerias,20.75,-105.3333,73.4,78,20,8.05,MX,1612657755
302,burns lake,54.2331,-125.7533,17.6,79,100,5.75,CA,1612657755
303,atar,20.5169,-13.0499,59.72,36,46,12.73,MR,1612657755
304,monastyrshchina,54.3496,31.838,-4.61,92,57,8.52,RU,1612657755
305,dingle,10.9995,122.6711,78.8,85,81,11.59,PH,1612657755
306,quelimane,-17.8786,36.8883,82.4,89,20,2.39,MZ,1612657756
307,tura,25.5198,90.2201,56.68,65,100,2.89,IN,1612657756
308,mezen,65.8522,44.24,-13.61,89,95,7.49,RU,1612657756
309,aden,12.7794,45.0367,74.08,68,4,3.96,YE,1612657756
310,paragominas,-2.9667,-47.4833,77.72,73,25,2.64,BR,1612657756
311,altay,47.8667,88.1167,21.18,87,63,4.0,CN,1612657756
312,ponta do sol,32.6667,-17.1,54.0,68,11,1.99,PT,1612657756
313,kanker,20.2719,81.4931,52.92,61,8,2.62,IN,1612657756
314,myanaung,18.2833,95.3167,68.77,60,44,2.93,MM,1612657756
315,sosnovo-ozerskoye,52.5249,111.5418,-10.35,89,76,4.68,RU,1612657756
316,luba,3.4568,8.5547,78.8,83,20,6.91,GQ,1612657757
317,goulburn,-34.75,149.7167,73.99,48,0,1.01,AU,1612657757
318,saint-augustin,51.226,-58.6502,34.16,95,100,17.94,CA,1612657669
319,namibe,-15.1961,12.1522,70.84,78,20,6.55,AO,1612657757
320,yuxia,34.0615,108.6291,45.0,68,0,4.47,CN,1612657757
321,buchanan,5.8808,-10.0467,75.2,100,20,9.26,LR,1612657757
322,gladstone,-23.85,151.25,89.6,51,30,5.75,AU,1612657736
323,orlik,52.5178,99.825,-6.99,82,25,1.97,RU,1612657757
324,vila franca do campo,37.7167,-25.4333,59.0,94,75,21.85,PT,1612657757
325,lakefield,43.6775,-95.1717,-4.0,65,1,8.05,US,1612657757
326,champerico,14.3,-91.9167,84.2,61,20,6.91,GT,1612657757
327,tefe,-3.3542,-64.7114,82.4,83,0,3.44,BR,1612657757
328,bakel,14.905,-12.4568,73.76,21,99,10.74,SN,1612657758
329,vila velha,-20.3297,-40.2925,82.0,88,75,4.61,BR,1612657758
330,batasan,12.7667,120.7833,80.51,66,77,4.16,PH,1612657758
331,kula,38.5473,28.6498,46.62,63,0,3.85,TR,1612657758
332,dedougou,12.4667,-3.4667,81.32,16,87,6.62,BF,1612657758
333,roald,62.5833,6.1333,26.6,68,0,10.36,NO,1612657758
334,belyy yar,53.6039,91.3903,5.0,85,53,2.24,RU,1612657758
335,sorland,67.667,12.6934,35.22,80,50,21.36,NO,1612657758
336,ligayan,4.6533,119.4706,81.46,79,100,14.14,PH,1612657758
337,burmakino,57.4166,40.2369,1.4,71,75,6.71,RU,1612657758
338,kotido,2.9806,34.1331,73.29,41,25,5.61,UG,1612657759
339,sinnamary,5.3833,-52.95,77.79,86,100,14.76,GF,1612657759
340,yar-sale,66.8333,70.8333,-30.05,85,100,14.74,RU,1612657759
341,laguna,38.421,-121.4238,64.99,45,1,5.75,US,1612657538
342,sokolac,43.9397,18.8017,41.0,100,100,1.14,BA,1612657682
343,aswan,24.0934,32.907,56.5,59,0,4.32,EG,1612657759
344,rawson,-43.3002,-65.1023,58.82,68,76,23.44,AR,1612657527
345,cidreira,-30.1811,-50.2056,69.48,75,28,3.8,BR,1612657759
346,cacapava,-23.1008,-45.7069,69.8,68,75,5.75,BR,1612657759
347,coos bay,43.3665,-124.2179,55.0,81,90,4.61,US,1612657632
348,ust-omchug,61.15,149.6333,-8.34,86,97,6.91,RU,1612657760
349,voh,-20.9667,164.7,86.04,58,16,3.56,NC,1612657760
350,lagoa,39.05,-27.9833,60.04,90,100,25.48,PT,1612657621
351,ahipara,-35.1667,173.1667,72.21,58,95,3.67,NZ,1612657760
352,sawtell,-30.3833,153.1,81.0,74,46,5.75,AU,1612657760
353,cabinda,-5.55,12.2,79.75,87,100,6.73,AO,1612657760
354,qarqin,37.4185,66.0436,53.24,41,74,5.37,AF,1612657760
355,tezu,27.9167,96.1667,58.15,34,78,3.04,IN,1612657760
356,wlodawa,51.55,23.55,10.4,79,0,14.97,PL,1612657760
357,labytnangi,66.6572,66.4183,-26.41,80,80,16.53,RU,1612657760
358,bar harbor,44.3876,-68.2039,36.0,51,75,9.22,US,1612657760
359,vostok,46.4856,135.8833,-8.55,90,100,2.48,RU,1612657761
360,rantepao,-2.9701,119.8978,73.42,79,78,0.67,ID,1612657761
361,los alamos,35.8881,-106.307,44.01,24,1,8.05,US,1612657761
362,padang,-0.9492,100.3543,71.6,88,20,2.3,ID,1612657653
363,dire,12.2833,-10.9667,75.4,19,76,1.43,ML,1612657761
364,lasa,46.6166,10.7002,39.99,100,90,11.5,IT,1612657761
365,prykolotne,50.1604,37.3474,8.87,87,99,11.54,UA,1612657761
366,port blair,11.6667,92.75,77.65,77,9,7.92,IN,1612657761
367,klaksvik,62.2266,-6.589,33.8,69,40,14.97,FO,1612657761
368,hambantota,6.1241,81.1185,71.6,100,0,3.44,LK,1612657762
369,darnetal,49.4453,1.1514,45.0,100,90,4.61,FR,1612657762
370,bireun,5.203,96.7009,76.59,81,58,6.67,ID,1612657762
371,tanabe,33.7333,135.3667,51.8,62,40,6.91,JP,1612657762
372,velsk,61.0701,42.0983,-9.78,89,100,7.49,RU,1612657762
373,nizhniy kuranakh,58.8353,125.4869,-23.66,81,90,1.14,RU,1612657762
374,guerrero negro,27.9769,-114.0611,69.21,40,0,11.27,MX,1612657762
375,yara,20.2753,-76.9533,76.87,73,39,3.74,CU,1612657505
376,lokosovo,61.1333,74.8167,32.94,95,100,14.76,RU,1612657762
377,mucurapo,10.6667,-61.5333,77.0,73,20,3.44,TT,1612657762
378,khandyga,62.6667,135.6,-25.29,86,99,2.19,RU,1612657763
379,sibu,2.3,111.8167,75.2,100,40,1.14,MY,1612657763
380,batagay-alyta,67.8006,130.4114,-26.18,84,99,2.19,RU,1612657598
381,makanya,-4.3667,37.8333,72.73,86,99,1.81,TZ,1612657763
382,klamath falls,42.2249,-121.7817,51.8,30,1,10.36,US,1612657763
383,vaitape,-16.5167,-151.75,82.45,66,2,9.24,PF,1612657494
384,geraldton,-28.7667,114.6,69.8,83,75,20.71,AU,1612657586
385,marsh harbour,26.5412,-77.0636,75.2,84,0,17.18,BS,1612657763
386,hasaki,35.7333,140.8333,46.4,57,20,4.61,JP,1612657559
387,serebryansk,49.6925,83.2892,35.6,60,66,15.66,KZ,1612657763
388,narva-joesuu,59.4589,28.0408,14.7,92,20,9.4,EE,1612657764
389,neuquen,-38.9516,-68.0591,86.0,48,0,4.61,AR,1612657755
390,puerto madryn,-42.7692,-65.0385,59.81,70,98,25.59,AR,1612657764
391,porto belo,-27.1578,-48.5531,75.2,73,0,8.05,BR,1612657764
392,jaciara,-15.9653,-54.9683,74.07,74,88,0.92,BR,1612657764
393,muisne,0.6,-80.0333,78.87,84,61,5.01,EC,1612657764
394,raudeberg,61.9875,5.1352,24.01,73,0,8.05,NO,1612657764
395,nome,64.5011,-165.4064,17.6,79,90,4.61,US,1612657764
396,lexington,37.9887,-84.4777,39.2,56,75,3.44,US,1612657749
397,pierre,44.3683,-100.351,3.2,47,1,3.44,US,1612657762
398,gorontalo,0.5412,123.0595,79.47,82,100,3.8,ID,1612657765
399,ivdel,60.6911,60.4206,-14.48,88,100,12.17,RU,1612657765
400,chapais,49.7834,-74.8492,14.0,79,90,10.36,CA,1612657510
401,papara,-3.9839,-38.7273,81.0,78,20,6.91,BR,1612657765
402,alta floresta,-9.8756,-56.0861,71.71,97,95,5.21,BR,1612657765
403,noyabrsk,63.1994,75.4507,14.18,97,100,14.67,RU,1612657765
404,sept-iles,50.2001,-66.3821,30.2,80,100,11.5,CA,1612657510
405,bathsheba,13.2167,-59.5167,77.0,73,20,11.5,BB,1612657765
406,thinadhoo,0.5333,72.9333,81.18,75,8,12.21,MV,1612657765
407,stornoway,58.2093,-6.3865,37.4,70,100,19.57,GB,1612657765
408,mutis,6.2262,-77.4044,79.99,85,97,4.23,CO,1612657765
409,longhua,23.6137,114.1919,63.23,63,0,1.41,CN,1612657765
410,petropavlovsk-kamchatskiy,53.0452,158.6483,26.6,63,40,20.13,RU,1612657598
411,cassilandia,-19.1133,-51.7342,71.1,76,28,4.12,BR,1612657766
412,havelock,34.8791,-76.9013,45.0,57,90,6.91,US,1612657596
413,pyaozerskiy,65.8333,31.1667,14.76,94,67,11.41,RU,1612657766
414,sitka,57.0531,-135.33,35.6,60,40,11.5,US,1612657766
415,kahramanmaras,38.0,37.0,39.2,87,0,4.61,TR,1612657766
416,kurkino,53.4257,38.6582,-6.18,91,66,10.56,RU,1612657766
417,police,53.5521,14.5718,19.0,86,93,1.01,PL,1612657766
418,conway,35.0887,-92.4421,39.2,93,90,16.11,US,1612657767
419,isetskoye,56.4858,65.3226,27.03,97,100,20.15,RU,1612657767
420,umba,66.6871,34.3429,17.85,96,66,8.95,RU,1612657767
421,yelizovo,53.1873,158.3805,26.6,63,40,20.13,RU,1612657767
422,tongchuan,35.0806,109.0897,39.94,59,92,6.29,CN,1612657767
423,huatulco,15.8436,-96.3267,80.6,69,40,11.5,MX,1612657767
424,oranjemund,-28.55,16.4333,65.07,92,38,14.45,NA,1612657767
425,lengyeltoti,46.6701,17.644,39.2,100,90,5.75,HU,1612657767
426,nabire,-3.3667,135.4833,81.5,70,99,1.36,ID,1612657506
427,kibre mengist,5.8833,38.9833,62.49,53,76,1.5,ET,1612657767
428,doha,25.2867,51.5333,70.0,78,0,10.36,QA,1612657768
429,palmerston north,-40.35,175.6167,77.0,47,94,3.0,NZ,1612657768
430,cabra,37.4725,-4.4421,48.0,83,82,4.0,ES,1612657768
431,sobolevo,54.4299,31.8996,-4.13,92,72,8.63,RU,1612657768
432,grand island,40.925,-98.342,6.01,66,1,8.05,US,1612657650
433,baniachang,24.5167,91.3667,60.01,61,38,6.55,BD,1612657748
434,vanavara,60.34,102.2797,9.25,95,100,8.77,RU,1612657768
435,winslow,35.0242,-110.6974,55.99,15,1,4.61,US,1612657768
436,mason city,43.1536,-93.201,-4.0,71,1,13.8,US,1612657768
437,pocone,-16.2567,-56.6228,78.01,55,13,2.42,BR,1612657768
438,teya,60.3778,92.6267,19.99,94,99,8.75,RU,1612657768
439,kensington,-33.9167,151.2167,81.0,48,0,4.0,AU,1612657769
440,saint-francois,46.4154,3.9054,48.2,100,90,6.91,FR,1612657769
441,mamontovo,52.7055,81.6244,32.23,93,45,22.08,RU,1612657769
442,baghdad,33.3406,44.4009,55.4,100,90,10.36,IQ,1612657610
443,waingapu,-9.6567,120.2641,81.32,74,48,6.96,ID,1612657769
444,mobaye,4.319,21.1786,69.82,30,21,2.44,CF,1612657769
445,bengkulu,-3.8004,102.2655,76.84,74,100,4.21,ID,1612657490
446,shenjiamen,29.9576,122.298,51.28,81,0,2.37,CN,1612657769
447,marathon,44.9,-89.7668,-2.2,55,1,11.5,US,1612657769
448,korla,41.7597,86.1469,24.98,86,0,2.24,CN,1612657770
449,beian,63.6559,9.5683,21.2,79,40,9.22,NO,1612657770
450,san patricio,28.017,-97.5169,71.6,43,1,10.36,US,1612657770
451,alghero,40.5589,8.3181,62.6,67,0,6.91,IT,1612657770
452,comodoro rivadavia,-45.8667,-67.5,57.2,72,40,9.22,AR,1612657561
453,palauig,15.435,119.9045,80.65,70,48,1.34,PH,1612657770
454,tessalit,20.1986,1.0114,71.76,18,89,13.24,ML,1612657770
455,ancud,-41.8697,-73.8203,66.2,52,0,6.91,CL,1612657770
456,cruz,-2.9178,-40.1717,77.81,83,58,10.56,BR,1612657770
457,hervey bay,-25.2986,152.8535,87.8,48,2,5.75,AU,1612657770
458,amapa,1.0,-52.0,72.01,98,100,2.37,BR,1612657770
459,bonavista,48.6499,-53.1147,37.4,93,100,3.44,CA,1612657771
460,nemuro,43.3236,145.575,23.0,86,75,8.05,JP,1612657771
461,oskemen,49.9565,82.6119,35.6,60,34,15.66,KZ,1612657771
462,ulaanbaatar,47.9077,106.8832,-18.4,76,0,2.24,MN,1612657771
463,neiafu,-18.65,-173.9833,78.8,94,90,9.22,TO,1612657574
464,nampula,-15.1165,39.2666,73.4,94,75,2.3,MZ,1612657771
465,biak,-0.9131,122.8766,78.85,74,100,2.42,ID,1612657771
466,gobabis,-22.45,18.9667,69.82,72,0,9.73,NA,1612657772
467,port elizabeth,-33.918,25.5701,69.8,78,0,19.57,ZA,1612657772
468,umm lajj,25.0213,37.2685,69.26,46,0,14.43,SA,1612657506
469,dawlatabad,36.4141,64.9053,48.13,70,93,1.57,AF,1612657772
470,pyay,18.8167,95.2167,69.8,60,87,1.57,MM,1612657772
471,murwillumbah,-28.3167,153.4,82.4,65,40,10.36,AU,1612657502
472,hun,29.1268,15.9477,64.22,27,36,8.05,LY,1612657772
473,jamkhed,18.7362,75.3121,64.87,28,11,15.64,IN,1612657772
474,trincomalee,8.5711,81.2335,78.8,83,54,13.8,LK,1612657772
475,nishihara,26.1842,127.7558,69.8,73,20,10.36,JP,1612657596
476,paamiut,61.994,-49.6678,24.76,80,0,5.08,GL,1612657772
477,garbsen,52.4167,9.6,27.0,74,90,26.46,DE,1612657557
478,woodward,36.4337,-99.3904,28.4,74,90,17.27,US,1612657773
479,jiangyou,31.7667,104.7167,46.44,67,16,3.67,CN,1612657773
480,hay river,60.8156,-115.7999,-31.0,61,44,4.61,CA,1612657773
481,san cristobal,7.7669,-72.225,82.4,65,100,2.3,VE,1612657773
482,harper,4.375,-7.7169,79.39,88,6,8.7,LR,1612657773
483,bati,11.1833,40.0167,54.63,97,54,2.01,ET,1612657773
484,carupano,10.6678,-63.2585,75.07,84,100,11.99,VE,1612657774
485,seoul,37.5683,126.9778,41.0,100,90,4.61,KR,1612657576
486,kawalu,-7.3817,108.2082,74.34,84,76,4.25,ID,1612657774
487,kirakira,-10.4544,161.9205,79.5,86,100,8.37,SB,1612657774
488,manta,-0.95,-80.7333,82.4,74,0,3.44,EC,1612657721
489,anchorage,61.2181,-149.9003,17.01,85,75,2.17,US,1612657556
490,kailua,21.4022,-157.7394,78.8,47,20,13.8,US,1612657774
491,shetpe,44.1667,52.1167,31.39,91,84,4.18,KZ,1612657775
492,haines junction,60.7522,-137.5108,-14.8,70,95,1.14,CA,1612657775
493,chamba,32.5667,76.1333,49.35,36,0,7.76,IN,1612657775
494,athabasca,54.7169,-113.2854,-14.8,69,100,3.44,CA,1612657775
495,sao jose da coroa grande,-8.8978,-35.1478,78.39,82,52,9.55,BR,1612657775
496,letlhakane,-21.4167,25.5833,71.47,82,92,9.53,BW,1612657609
497,omboue,-1.5746,9.2618,79.0,84,100,7.49,GA,1612657579
498,adrar,20.5022,-10.0711,57.67,39,99,11.05,MR,1612657776
499,pizarro,4.9533,-77.366,79.59,86,100,2.75,CO,1612657776
500,ankazoabo,-22.2833,44.5167,73.18,86,10,3.09,MG,1612657776
501,kieta,-6.2167,155.6333,86.77,64,46,6.87,PG,1612657776
502,solwezi,-12.1688,26.3894,64.26,97,100,5.61,ZM,1612657776
503,iracoubo,5.4802,-53.2011,77.68,87,100,13.71,GF,1612657776
504,caico,-6.4583,-37.0978,81.95,57,70,9.04,BR,1612657776
505,krasnyy chikoy,50.3643,108.7512,-5.85,86,76,2.75,RU,1612657776
506,farmington,36.7281,-108.2187,48.2,20,1,12.66,US,1612657776
507,roma,43.2128,-75.4557,23.0,50,1,4.61,US,1612657742
508,santa isabel do rio negro,-0.4139,-65.0192,76.62,91,50,1.97,BR,1612657480
509,stary sacz,49.5636,20.635,25.0,88,98,5.26,PL,1612657777
510,ulladulla,-35.35,150.4667,77.0,57,40,5.75,AU,1612657594
511,concarneau,47.875,-3.9225,39.2,100,75,5.75,FR,1612657777
512,voi,-3.3945,38.563,73.62,82,74,3.09,KE,1612657777
513,beatrice,40.2681,-96.747,5.0,72,1,4.61,US,1612657777
514,alta gracia,-31.6529,-64.4283,78.01,77,0,5.75,AR,1612657777
515,kajiado,-1.8524,36.7768,61.92,91,72,5.12,KE,1612657777
516,asfi,32.2994,-9.2372,55.89,70,46,6.98,MA,1612657773
517,juneau,58.3019,-134.4197,23.0,50,20,11.5,US,1612657777
518,zhanakorgan,43.9098,67.2495,35.11,89,59,8.23,KZ,1612657778
519,praia,14.9215,-23.5087,68.0,64,75,20.71,CV,1612657778
520,qasigiannguit,68.8193,-51.1922,26.6,33,2,26.46,GL,1612657778
521,sao miguel do araguaia,-13.275,-50.1628,72.57,97,100,7.94,BR,1612657778
522,sokoni,-6.4333,39.55,80.6,83,20,10.65,TZ,1612657778
523,chernyshevskiy,63.0128,112.4714,-28.89,87,83,2.21,RU,1612657778
524,imatra,61.1719,28.7524,10.0,88,45,5.01,FI,1612657778
525,biltine,14.5333,20.9167,63.72,26,5,14.61,TD,1612657778
526,ardakan,32.31,54.0175,48.2,46,0,4.61,IR,1612657778
527,landen,50.7538,5.08,35.01,93,90,16.11,BE,1612657778
528,santa cruz de tenerife,28.4682,-16.2546,60.01,82,75,24.16,ES,1612657779
529,koltubanovskiy,52.9407,52.0269,1.24,91,85,11.36,RU,1612657779
530,rovnoye,50.7765,46.0509,11.89,90,98,12.19,RU,1612657779
531,aktanysh,55.7216,54.0829,-1.79,90,100,14.97,RU,1612657779
532,netanya,32.3329,34.8599,55.99,94,40,4.61,IL,1612657661
533,dawei,14.0833,98.2,69.87,61,8,3.02,MM,1612657779
534,san rafael,-34.6177,-68.3301,83.39,27,0,10.69,AR,1612657493
535,riosucio,5.4216,-75.7032,75.2,69,40,8.05,CO,1612657598
536,tucurui,-3.7661,-49.6725,79.14,68,25,2.53,BR,1612657779
537,pedernales,18.0384,-71.744,77.81,66,20,13.22,DO,1612657779
538,mvuma,-19.2792,30.5283,64.36,94,96,6.06,ZW,1612657779
539,jiaozuo,35.2397,113.2331,46.04,47,55,1.25,CN,1612657780
540,inirida,3.8653,-67.9239,76.08,95,100,2.1,CO,1612657780
541,xiuyan,40.2928,123.2744,17.69,90,18,9.66,CN,1612657780
542,auki,-8.7676,160.7034,78.75,86,100,6.73,SB,1612657581
543,polis,35.0367,32.4264,51.8,87,90,5.75,CY,1612657780
544,atbasar,51.8,68.3333,13.62,94,100,27.04,KZ,1612657780
545,along,28.1667,94.7667,49.03,53,25,1.66,IN,1612657780
