City ID,City,Lat,lng,Max Temp,Humidity,Cloudiness,Wind Speed,Country,Date
0,lagoa,39.05,-27.9833,59.99,91,100,25.81,PT,1612659139
1,hilo,19.7297,-155.09,78.8,47,40,9.22,US,1612659154
2,orocue,4.7912,-71.3354,84.15,57,69,8.14,CO,1612659435
3,torres,-29.3353,-49.7269,69.06,83,100,3.83,BR,1612659435
4,rikitea,-23.1203,-134.9692,78.78,68,45,9.57,PF,1612659322
5,boyolangu,-8.1181,111.8935,79.65,80,50,7.67,ID,1612659201
6,lahij,13.1667,44.5833,66.15,78,89,2.08,YE,1612659435
7,richards bay,-28.783,32.0377,72.88,86,6,9.42,ZA,1612659435
8,saint-pierre,-21.3393,55.4781,78.8,73,75,4.61,RE,1612659384
9,komsomolskiy,40.4272,71.7189,39.2,60,99,2.3,UZ,1612659198
10,chokurdakh,70.6333,147.9167,-20.04,86,100,3.49,RU,1612659436
11,coahuayana,18.7333,-103.6833,77.0,69,1,2.57,MX,1612659387
12,khatanga,71.9667,102.5,-35.48,78,0,8.43,RU,1612659436
13,gizo,-8.103,156.8419,82.15,74,100,0.16,SB,1612659436
14,ballina,-28.8667,153.5667,84.2,65,100,8.05,AU,1612659436
15,puerto ayora,-0.7393,-90.3518,77.0,93,52,7.4,EC,1612659436
16,avera,33.194,-82.5271,41.0,90,90,10.36,US,1612659388
17,punta arenas,-53.15,-70.9167,53.6,62,0,18.41,CL,1612659436
18,a coruna,43.3713,-8.396,44.01,100,0,6.91,ES,1612659326
19,guerrero negro,27.9769,-114.0611,65.89,47,0,12.28,MX,1612659187
20,cape town,-33.9258,18.4232,70.0,88,20,9.22,ZA,1612659329
21,busselton,-33.65,115.3333,60.01,97,100,3.0,AU,1612659169
22,pecos,31.4229,-103.4932,60.8,10,1,3.44,US,1612659242
23,bluff,-46.6,168.3333,61.23,70,0,7.07,NZ,1612659437
24,calabazar de sagua,22.6447,-79.8961,78.8,69,20,5.75,CU,1612659437
25,san carlos de bariloche,-41.1456,-71.3082,78.8,24,0,11.5,AR,1612659437
26,biltine,14.5333,20.9167,63.46,27,6,15.77,TD,1612659437
27,mataura,-46.1927,168.8643,80.42,46,0,1.88,NZ,1612659437
28,barrow,71.2906,-156.7887,-5.8,77,40,16.11,US,1612659437
29,irtyshskiy,58.3333,68.1333,32.04,99,100,12.73,RU,1612659437
30,pisco,-13.7,-76.2167,73.4,78,75,9.22,PE,1612659194
31,esperance,-33.8667,121.9,60.8,94,90,12.66,AU,1612659140
32,new norfolk,-42.7826,147.0587,69.01,48,74,1.99,AU,1612659327
33,san patricio,28.017,-97.5169,71.6,43,1,10.36,US,1612659201
34,yarada,17.65,83.2667,60.8,82,0,2.3,IN,1612659438
35,muros,42.7762,-9.0603,37.99,95,66,2.84,ES,1612659155
36,ushuaia,-54.8,-68.3,51.8,76,40,18.41,AR,1612659414
37,port alfred,-33.5906,26.891,66.99,88,39,5.01,ZA,1612659149
38,vaini,-21.2,-175.2,84.2,84,75,12.66,TO,1612659145
39,necochea,-38.5473,-58.7368,61.0,82,0,4.0,AR,1612659438
40,leua,48.2156,18.6071,41.0,98,100,14.47,SK,1612659398
41,kampene,-3.6,26.6667,70.16,93,100,1.21,CD,1612659438
42,port blair,11.6667,92.75,78.93,74,0,8.12,IN,1612659439
43,nikolskoye,59.7035,30.7861,10.4,79,75,17.9,RU,1612659439
44,georgetown,5.4112,100.3354,80.01,83,20,2.3,MY,1612659232
45,hofn,64.2539,-15.2082,32.13,95,99,17.9,IS,1612659376
46,qasigiannguit,68.8193,-51.1922,26.6,33,0,26.46,GL,1612659439
47,urdoma,61.7533,48.5442,-12.12,86,100,10.11,RU,1612659439
48,vardo,70.3705,31.1107,26.67,96,100,28.86,NO,1612659439
49,narsaq,60.9167,-46.05,23.16,81,100,3.65,GL,1612659211
50,matehuala,23.65,-100.65,66.42,19,18,7.25,MX,1612659181
51,deer lake,49.1667,-57.4316,35.6,93,90,17.27,CA,1612659439
52,ancud,-41.8697,-73.8203,66.2,52,0,6.91,CL,1612659228
53,yiyang,28.5892,112.3283,53.49,79,32,3.96,CN,1612659440
54,fairbanks,64.8378,-147.7164,-5.01,71,90,0.87,US,1612659438
55,codrington,-38.2667,141.9667,60.17,67,100,11.7,AU,1612659389
56,hermanus,-34.4187,19.2345,66.99,92,100,1.99,ZA,1612659339
57,ossora,59.2353,163.0719,24.71,97,100,37.38,RU,1612659143
58,ulagan,50.6321,87.9563,7.9,82,0,3.87,RU,1612659440
59,saint-philippe,-21.3585,55.7679,78.8,73,75,4.61,RE,1612659440
60,chuy,-33.6971,-53.4616,67.05,88,0,9.71,UY,1612659440
61,hithadhoo,-0.6,73.0833,81.36,75,41,13.96,MV,1612659440
62,marquette,46.5333,-87.6335,1.99,58,26,5.01,US,1612659440
63,damghan,36.1683,54.348,45.99,80,100,2.06,IR,1612659441
64,port elizabeth,-33.918,25.5701,69.8,78,0,19.57,ZA,1612659142
65,coihaique,-45.5752,-72.0662,71.6,35,0,18.41,CL,1612659441
66,kavieng,-2.5744,150.7967,85.21,64,35,1.03,PG,1612659441
67,victoria,22.2855,114.1577,69.01,62,0,9.28,HK,1612659370
68,bathsheba,13.2167,-59.5167,77.0,73,20,11.5,BB,1612659143
69,rabo de peixe,37.8,-25.5833,59.0,94,75,23.02,PT,1612659441
70,lebu,-37.6167,-73.65,58.32,93,36,2.26,CL,1612659441
71,karratha,-20.7377,116.8463,81.75,52,0,8.63,AU,1612659199
72,chardara,41.2547,67.9692,48.94,77,100,9.1,KZ,1612659441
73,abu dhabi,24.4667,54.3667,66.2,52,0,6.91,AE,1612659194
74,killin,33.6123,-91.7412,44.6,93,90,6.29,US,1612659441
75,north bend,43.4065,-124.2243,48.99,81,90,4.61,US,1612659442
76,bredasdorp,-34.5322,20.0403,66.99,92,95,1.99,ZA,1612659146
77,dikson,73.5069,80.5464,-27.45,87,90,9.17,RU,1612659442
78,baoshan,46.5586,131.4244,-3.21,89,97,7.16,CN,1612659442
79,ilulissat,69.2167,-51.1,26.6,33,0,26.46,GL,1612659344
80,khani,41.9563,42.9566,46.4,87,40,11.5,GE,1612659442
81,cockburn town,21.4612,-71.1419,77.0,78,40,17.27,TC,1612659442
82,ostrovnoy,68.0531,39.5131,8.11,92,100,10.74,RU,1612659379
83,deputatskiy,69.3,139.9,-33.45,83,28,1.52,RU,1612659201
84,terney,45.0503,136.6092,6.62,84,0,12.59,RU,1612659442
85,batagay,67.6333,134.6333,-22.92,85,100,2.37,RU,1612659442
86,qaanaaq,77.484,-69.3632,10.04,86,100,8.48,GL,1612659442
87,walvis bay,-22.9575,14.5053,64.0,88,1,5.75,NA,1612659161
88,namtsy,62.7161,129.6658,-43.6,60,100,4.47,RU,1612659443
89,mount darwin,-16.7725,31.5838,67.66,97,96,2.82,ZW,1612659443
90,apollonia,36.9716,24.7231,59.0,100,100,11.5,GR,1612659443
91,tasiilaq,65.6145,-37.6368,33.8,55,75,28.77,GL,1612659161
92,paragominas,-2.9667,-47.4833,76.5,77,50,3.56,BR,1612659443
93,hudiksvall,61.729,17.1036,10.99,97,29,6.51,SE,1612659443
94,cabo san lucas,22.8909,-109.9124,72.0,53,20,8.05,MX,1612659268
95,whitehorse,60.7161,-135.0538,-7.01,70,40,2.3,CA,1612659443
96,avarua,-21.2078,-159.775,86.0,70,35,11.5,CK,1612659443
97,jumilla,38.4792,-1.325,46.0,76,0,11.99,ES,1612659444
98,kapaa,22.0752,-159.319,75.99,53,75,5.75,US,1612659150
99,namibe,-15.1961,12.1522,70.54,79,34,5.73,AO,1612659444
100,mar del plata,-38.0023,-57.5575,64.0,77,20,10.36,AR,1612659445
101,sarahan,31.5167,77.8,34.02,55,0,14.07,IN,1612659445
102,mayo,38.8876,-76.5119,42.01,56,1,3.44,US,1612659445
103,huarmey,-10.0681,-78.1522,71.04,77,100,7.27,PE,1612659385
104,mahebourg,-20.4081,57.7,77.0,83,40,4.61,MU,1612659445
105,saskylakh,71.9167,114.0833,-41.19,78,24,7.43,RU,1612659445
106,gualeguay,-33.1416,-59.3097,72.82,42,0,6.8,AR,1612659445
107,lebyazhye,55.2689,66.4947,18.57,96,100,24.49,RU,1612659446
108,castro,-24.7911,-50.0119,60.3,96,8,9.78,BR,1612659151
109,lasa,46.6166,10.7002,39.0,100,90,11.5,IT,1612659328
110,katsuura,35.1333,140.3,53.6,54,20,3.44,JP,1612659177
111,mandera,3.9366,41.867,74.14,69,0,11.83,KE,1612659446
112,sisimiut,66.9395,-53.6735,23.31,79,0,22.79,GL,1612659446
113,arraial do cabo,-22.9661,-42.0278,75.34,83,100,5.82,BR,1612659360
114,bethel,41.3712,-73.414,35.6,38,1,4.61,US,1612659246
115,atuona,-9.8,-139.0333,80.13,78,51,19.84,PF,1612659446
116,spanish lake,38.7878,-90.2159,25.0,80,90,10.36,US,1612659446
117,la paz,-16.5,-68.15,50.0,66,75,10.36,BO,1612659446
118,kunya,12.2233,8.5325,59.0,44,100,3.44,NG,1612659447
119,albany,42.6001,-73.9662,27.0,44,0,3.76,US,1612659447
120,bom jardim,-7.7958,-35.5872,75.2,83,0,12.66,BR,1612659447
121,itarema,-2.9248,-39.9167,78.42,83,39,10.04,BR,1612659447
122,hobart,-42.8794,147.3294,69.01,51,75,17.27,AU,1612659447
123,nanyamba,-10.6833,39.8333,77.0,94,20,9.22,TZ,1612659447
124,lompoc,34.6391,-120.4579,63.0,67,1,9.22,US,1612659217
125,orlik,52.5178,99.825,-6.36,82,7,2.64,RU,1612659328
126,lhokseumawe,5.1801,97.1507,77.86,80,8,6.11,ID,1612659447
127,carnarvon,-24.8667,113.6333,82.4,100,75,14.97,AU,1612659360
128,chegdomyn,51.1167,133.0167,-8.97,87,100,0.89,RU,1612659447
129,magole,-6.3667,37.3667,75.2,94,75,1.01,TZ,1612659447
130,treinta y tres,-33.2333,-54.3833,66.25,79,0,7.52,UY,1612659218
131,miyako,39.6367,141.9525,41.77,79,28,2.73,JP,1612659448
132,berlevag,70.8578,29.0864,26.42,94,100,26.13,NO,1612659448
133,mabaruma,8.2,-59.7833,72.34,97,100,4.05,GY,1612659448
134,bac lieu,9.285,105.7244,79.41,72,22,11.03,VN,1612659224
135,beringovskiy,63.05,179.3167,-7.37,90,90,9.24,RU,1612659183
136,san ciro de acosta,21.6333,-99.8167,72.18,51,87,9.53,MX,1612659448
137,praia da vitoria,38.7333,-27.0667,60.8,82,20,14.0,PT,1612659326
138,leshukonskoye,64.8989,45.7622,-18.62,86,85,9.26,RU,1612659448
139,inhambane,-23.865,35.3833,76.69,88,100,6.82,MZ,1612659448
140,hualmay,-11.0964,-77.6139,71.22,75,100,8.48,PE,1612659449
141,tessalit,20.1986,1.0114,70.97,19,100,9.62,ML,1612659449
142,torbay,47.6666,-52.7314,45.0,93,40,20.71,CA,1612659185
143,souillac,-20.5167,57.5167,77.0,83,40,4.61,MU,1612659449
144,kruisfontein,-34.0033,24.7314,64.99,88,0,1.99,ZA,1612659449
145,ginir,7.1333,40.7,58.6,53,100,3.58,ET,1612659449
146,beloha,-25.1667,45.05,74.1,95,22,3.78,MG,1612659344
147,suwalki,54.1118,22.9309,2.48,95,71,3.13,PL,1612659450
148,verkhnyaya inta,65.9811,60.3094,-20.67,85,100,14.0,RU,1612659450
149,kharp,66.8014,65.8081,-17.46,83,100,5.55,RU,1612659450
150,bambous virieux,-20.3428,57.7575,77.0,83,40,4.61,MU,1612659176
151,casablanca,33.5928,-7.6192,51.01,100,75,11.5,MA,1612659258
152,colmenar viejo,40.6591,-3.7676,46.99,89,36,2.15,ES,1612659300
153,lamar,33.6668,-95.5836,42.01,93,90,16.11,US,1612659451
154,kalabo,-14.97,22.6814,68.27,88,100,3.67,ZM,1612659451
155,sao filipe,14.8961,-24.4956,69.4,75,18,15.79,CV,1612659313
156,geraldton,-28.7667,114.6,71.6,78,75,20.71,AU,1612659451
157,somerset,40.5668,-74.5496,34.0,62,100,1.01,US,1612659451
158,worthington,40.0931,-83.018,23.0,58,1,3.44,US,1612659451
159,ribeira grande,38.5167,-28.7,61.05,88,100,23.04,PT,1612659451
160,portland,45.5234,-122.6762,46.99,87,90,20.71,US,1612659451
161,upernavik,72.7868,-56.1549,18.45,76,29,2.68,GL,1612659452
162,yellowknife,62.456,-114.3525,-36.4,67,1,2.3,CA,1612659153
163,clifton,40.8584,-74.1638,41.0,38,1,4.61,US,1612659452
164,airai,-8.9266,125.4092,70.84,78,74,4.32,TL,1612659344
165,birjand,32.8663,59.2211,44.6,15,0,11.5,IR,1612659452
166,woodward,36.4337,-99.3904,28.4,74,90,11.5,US,1612659362
167,bay roberts,47.5999,-53.2648,43.0,93,40,20.71,CA,1612659452
168,aklavik,68.2191,-135.0107,-7.6,71,90,11.5,CA,1612659452
169,uvinza,-5.1036,30.3911,66.87,88,100,3.29,TZ,1612659452
170,dudinka,69.4058,86.1778,-34.42,80,0,9.15,RU,1612659452
171,dunedin,-45.8742,170.5036,61.0,77,0,25.01,NZ,1612659438
172,san policarpo,12.1791,125.5072,80.82,84,100,16.08,PH,1612659347
173,goure,13.9835,10.2704,60.94,26,100,8.79,NE,1612659453
174,makakilo city,21.3469,-158.0858,78.8,44,1,13.8,US,1612659453
175,saint-augustin,51.226,-58.6502,33.51,96,100,17.87,CA,1612659195
176,butaritari,3.0707,172.7902,81.14,80,44,20.54,KI,1612659453
177,kodiak,57.79,-152.4072,37.4,60,1,9.22,US,1612659453
178,longyearbyen,78.2186,15.6401,15.8,86,75,12.66,SJ,1612659453
179,provideniya,64.3833,-173.3,1.76,88,5,4.85,RU,1612659453
180,caceres,39.522,-6.3748,44.01,88,0,1.01,ES,1612659453
181,lorengau,-2.0226,147.2712,84.69,73,97,5.03,PG,1612659453
182,sakakah,29.9697,40.2064,46.4,66,0,11.5,SA,1612659453
183,ponta do sol,32.6667,-17.1,54.0,85,12,5.99,PT,1612659454
184,klaksvik,62.2266,-6.589,35.6,60,20,17.27,FO,1612659338
185,constitucion,-35.3333,-72.4167,57.87,87,33,4.61,CL,1612659454
186,eruwa,7.5333,3.4167,78.51,83,100,5.39,NG,1612659454
187,waingapu,-9.6567,120.2641,83.44,71,2,8.72,ID,1612659348
188,boa vista,2.8197,-60.6733,82.4,65,0,8.05,BR,1612659454
189,norman wells,65.282,-126.8329,-25.6,68,75,2.3,CA,1612659227
190,severo-kurilsk,50.6789,156.125,22.01,93,100,24.43,RU,1612659454
191,pangnirtung,66.1451,-65.7125,22.91,79,100,3.27,CA,1612659338
192,lomianki,52.3341,20.886,14.0,79,0,10.36,PL,1612659454
193,southampton,50.904,-1.4043,39.99,92,100,1.99,GB,1612659300
194,oneonta,42.4529,-75.0638,18.0,57,0,4.16,US,1612659454
195,siniscola,40.5719,9.6922,60.75,57,100,1.39,IT,1612659455
196,mana,5.6592,-53.7767,76.89,87,100,12.82,GF,1612659455
197,east london,-33.0153,27.9116,74.55,87,74,14.99,ZA,1612659455
198,sokolka,53.4072,23.5023,-0.99,85,54,3.27,PL,1612659455
199,college,64.8569,-147.8028,-5.01,71,90,0.89,US,1612659455
200,bobrovka,54.047,61.7455,5.52,87,96,23.71,RU,1612659455
201,nanortalik,60.1432,-45.2371,24.17,87,100,9.69,GL,1612659455
202,snasa,64.2457,12.3778,10.4,86,18,3.11,NO,1612659455
203,bilma,18.6853,12.9164,60.51,28,0,6.02,NE,1612659455
204,dongsheng,39.8161,109.9776,19.2,79,0,8.25,CN,1612659455
205,tanout,14.9709,8.8879,60.06,28,98,9.75,NE,1612659456
206,saint anthony,45.0205,-93.218,-4.0,59,1,14.97,US,1612659222
207,beziers,43.3476,3.219,50.0,87,0,16.11,FR,1612659456
208,tuktoyaktuk,69.4541,-133.0374,-16.6,76,90,21.85,CA,1612659456
209,saint george,37.1041,-113.5841,60.8,14,1,10.36,US,1612659351
210,jamestown,42.097,-79.2353,17.6,53,1,6.91,US,1612659456
211,ukiah,39.1502,-123.2078,71.6,33,1,3.44,US,1612659456
212,okha,53.5739,142.9478,2.82,94,100,7.7,RU,1612659456
213,iracoubo,5.4802,-53.2011,77.4,87,100,14.56,GF,1612659456
214,la rioja,42.25,-2.5,41.0,87,20,3.44,ES,1612659457
215,eyl,7.9803,49.8164,74.5,82,39,11.79,SO,1612659457
216,seoul,37.5683,126.9778,41.0,100,90,5.75,KR,1612659352
217,rio gallegos,-51.6226,-69.2181,59.0,41,0,4.61,AR,1612659341
218,humboldt,40.6665,-123.9178,51.01,87,1,11.5,US,1612659457
219,hamilton,39.1834,-84.5333,30.99,51,1,3.44,US,1612659457
220,kalaleh,37.3807,55.4916,50.0,87,75,9.22,IR,1612659457
221,karpathos,35.507,27.2132,59.0,94,0,3.44,GR,1612659457
222,camacha,33.0833,-16.3333,59.0,63,40,12.66,PT,1612659457
223,antalaha,-14.9003,50.2788,74.86,86,100,3.78,MG,1612659457
224,puerto cabello,10.4731,-68.0125,76.15,84,100,13.47,VE,1612659457
225,sobolevo,54.4299,31.8996,-4.43,92,66,8.43,RU,1612659457
226,zhigansk,66.7697,123.3711,-37.86,81,100,12.57,RU,1612659458
227,verkhnevilyuysk,63.4453,120.3167,-30.8,84,6,3.83,RU,1612659365
228,kamaishi,39.2667,141.8833,35.6,100,75,1.14,JP,1612659399
229,traverse city,44.7631,-85.6206,15.8,73,90,6.91,US,1612659387
230,takoradi,4.8845,-1.7554,79.63,87,0,10.4,GH,1612659458
231,yeppoon,-23.1333,150.7333,93.2,49,91,8.05,AU,1612659458
232,touros,-5.1989,-35.4608,77.0,88,20,4.61,BR,1612659327
233,ambon,-3.6954,128.1814,84.2,79,40,4.61,ID,1612659458
234,fort wellington,6.4,-57.6,77.29,83,100,11.86,GY,1612659458
235,tougan,13.0667,-3.0667,79.9,17,97,7.45,BF,1612659458
236,thompson,55.7435,-97.8558,-27.4,68,75,13.8,CA,1612659324
237,fortuna,40.5982,-124.1573,52.0,87,1,11.5,US,1612659183
238,rochegda,62.8,43.25,-12.5,86,62,9.13,RU,1612659459
239,estelle,29.8458,-90.1067,55.4,100,90,5.75,US,1612659459
240,asyut,27.181,31.1837,53.6,82,0,5.75,EG,1612659384
241,shiyan,32.6475,110.7781,52.99,43,100,0.49,CN,1612659459
242,henties bay,-22.116,14.2845,64.0,90,5,1.99,NA,1612659459
243,nanakuli,21.3906,-158.1547,78.8,44,1,13.8,US,1612659459
244,saint-leu,-21.15,55.2833,77.0,62,71,0.69,RE,1612659459
245,evensk,61.95,159.2333,18.52,85,100,26.15,RU,1612659459
246,kargopol,61.5071,38.9456,2.71,93,100,6.44,RU,1612659459
247,half moon bay,37.4636,-122.4286,64.4,76,1,12.66,US,1612659459
248,pavino,59.1139,46.1414,-8.57,89,100,10.36,RU,1612659460
249,nhulunbuy,-12.2333,136.7667,86.0,70,40,10.36,AU,1612659460
250,istok,42.7808,20.4875,48.99,75,0,1.14,XK,1612659460
251,sorkjosen,69.8,20.9333,27.09,94,100,14.9,NO,1612659460
252,nadvoitsy,63.8667,34.3167,14.99,97,100,5.73,RU,1612659460
253,omboue,-1.5746,9.2618,78.84,84,100,8.43,GA,1612659460
254,sibolga,1.7427,98.7792,78.62,72,50,2.75,ID,1612659460
255,ygatimi,-24.0833,-55.5,65.57,81,0,1.95,PY,1612659460
256,genhe,50.7833,121.5167,-14.28,85,14,1.16,CN,1612659460
257,tiksi,71.6872,128.8694,-26.0,84,100,4.85,RU,1612659461
258,wad madani,14.4012,33.5199,59.52,34,0,10.89,SD,1612659461
259,tinalmud,13.5941,122.878,80.4,78,35,10.65,PH,1612659461
260,srednekolymsk,67.45,153.6833,-14.62,83,0,0.98,RU,1612659461
261,ruteng,-8.6136,120.4721,73.9,75,73,1.41,ID,1612659461
262,kahului,20.8947,-156.47,78.8,47,20,10.36,US,1612659380
263,darhan,49.4867,105.9228,-2.94,86,0,6.96,MN,1612659461
264,jalingo,8.8833,11.3667,74.95,20,0,5.06,NG,1612659461
265,lima,-12.0432,-77.0282,75.0,78,75,11.5,PE,1612659206
266,saldanha,-33.0117,17.9442,65.53,91,44,12.91,ZA,1612659461
267,hasaki,35.7333,140.8333,54.0,53,20,2.3,JP,1612659461
268,iqaluit,63.7506,-68.5145,26.6,74,90,13.8,CA,1612659462
269,la ronge,55.1001,-105.2842,-22.0,63,74,4.61,CA,1612659444
270,wanning,18.8003,110.3967,69.93,81,24,3.53,CN,1612659462
271,port lincoln,-34.7333,135.8667,62.37,67,99,11.65,AU,1612659362
272,sept-iles,50.2001,-66.3821,30.2,80,100,11.5,CA,1612659448
273,khasan,42.4308,130.6434,15.91,86,0,12.91,RU,1612659462
274,stirling,56.119,-3.9368,37.0,82,100,11.01,GB,1612659462
275,islamkot,24.6997,70.177,59.05,32,0,8.48,PK,1612659462
276,hoquiam,46.9809,-123.8893,46.99,87,75,19.57,US,1612659463
277,mubi,10.2676,13.2644,64.26,28,97,1.74,NG,1612659463
278,awbari,26.5921,12.7805,61.92,27,0,13.82,LY,1612659463
279,mattru,7.6244,-11.8332,75.47,81,64,1.28,SL,1612659463
280,jalu,29.0331,21.5482,58.44,41,0,8.52,LY,1612659391
281,mnogovershinnyy,53.9353,139.9242,-0.96,93,100,7.83,RU,1612659463
282,batagay-alyta,67.8006,130.4114,-24.92,84,100,2.13,RU,1612659463
283,zvishavane,-20.3267,30.0665,67.41,98,99,3.11,ZW,1612659463
284,sao joao da barra,-21.6403,-41.0511,71.4,95,100,14.85,BR,1612659242
285,manaure,11.7751,-72.4445,78.37,66,100,19.17,CO,1612659463
286,safranbolu,41.2508,32.6942,45.07,63,26,0.43,TR,1612659463
287,sembe,1.6481,14.5806,74.75,77,89,4.5,CG,1612659464
288,great yarmouth,52.6083,1.7305,37.4,87,90,25.32,GB,1612659464
289,santa rosa,14.3122,121.1114,86.0,78,40,10.54,PH,1612659464
290,urucui,-7.2294,-44.5561,75.63,79,91,5.44,BR,1612659464
291,sambava,-14.2667,50.1667,74.73,90,100,4.68,MG,1612659249
292,mareeba,-17.0,145.4333,89.01,74,69,6.91,AU,1612659464
293,bengkulu,-3.8004,102.2655,79.27,71,99,4.23,ID,1612659364
294,oranjemund,-28.55,16.4333,65.1,91,91,16.98,NA,1612659464
295,ariquemes,-9.9133,-63.0408,74.23,98,100,2.91,BR,1612659464
296,pacific grove,36.6177,-121.9166,57.99,82,1,5.75,US,1612659370
297,isangel,-19.55,169.2667,86.0,79,20,5.75,VU,1612659348
298,viedma,-40.8135,-62.9967,63.0,69,100,1.01,AR,1612659465
299,kenai,60.5544,-151.2583,18.0,86,90,6.91,US,1612659465
300,aginskoye,51.1,114.53,-7.6,87,47,4.61,RU,1612659465
301,haines junction,60.7522,-137.5108,-14.8,70,60,1.14,CA,1612659465
302,novikovo,51.1537,37.8879,2.5,90,39,10.54,RU,1612659465
303,talnakh,69.4865,88.3972,-29.31,72,0,1.83,RU,1612659465
304,cidreira,-30.1811,-50.2056,68.36,76,15,4.07,BR,1612659333
305,san rafael,-34.6177,-68.3301,81.64,29,0,9.84,AR,1612659207
306,letlhakane,-21.4167,25.5833,71.38,81,100,9.37,BW,1612659465
307,pljevlja,43.3333,19.3333,46.4,57,0,5.75,ME,1612659465
308,bagotville,-28.9833,153.4167,84.2,65,100,8.05,AU,1612659465
309,lakes entrance,-37.8811,147.981,72.0,61,21,5.01,AU,1612659466
310,vrangel,42.7297,133.0839,15.76,81,0,12.44,RU,1612659466
311,werda,-25.2667,23.2833,65.88,91,17,10.4,BW,1612659466
312,frolovo,49.7713,43.6622,14.0,83,100,7.0,RU,1612659466
313,salalah,17.0151,54.0924,73.4,68,75,5.75,OM,1612659466
314,sidi ali,36.0998,0.4206,51.33,86,100,11.18,DZ,1612659466
315,manbij,36.5281,37.9549,37.4,81,0,7.76,SY,1612659466
316,pemangkat,1.1667,108.9667,79.68,84,99,2.66,ID,1612659466
317,muzhi,65.3667,64.6667,-29.54,84,100,15.88,RU,1612659466
318,fraga,41.5229,0.3489,45.0,93,0,6.91,ES,1612659466
319,jumla,29.2747,82.1838,26.1,69,0,7.18,NP,1612659466
320,te anau,-45.4167,167.7167,75.29,39,0,4.38,NZ,1612659466
321,sao jose da coroa grande,-8.8978,-35.1478,78.1,83,96,8.79,BR,1612659467
322,pevek,69.7008,170.3133,-6.09,87,0,5.61,RU,1612659467
323,iznoski,54.9881,35.3108,-7.17,91,20,7.29,RU,1612659467
324,high level,58.5169,-117.136,-18.4,63,1,2.3,CA,1612659467
325,clyde river,70.4692,-68.5914,-9.4,77,75,2.55,CA,1612659467
326,noumea,-22.2763,166.4572,87.8,62,20,6.91,NC,1612659467
327,oistins,13.0667,-59.5333,77.0,73,20,11.5,BB,1612659406
328,pueblo bello,8.2041,-76.526,76.93,89,100,4.21,CO,1612659467
329,sola,-13.8833,167.55,81.95,74,36,4.88,VU,1612659405
330,sur,22.5667,59.5289,61.97,68,0,5.77,OM,1612659468
331,zalantun,48.0,122.7167,-4.27,84,0,6.08,CN,1612659468
332,borogontsy,62.6683,131.1683,-31.7,82,100,3.44,RU,1612659468
333,vila franca do campo,37.7167,-25.4333,59.0,94,75,23.02,PT,1612659173
334,peniche,39.3558,-9.3811,53.01,69,25,11.01,PT,1612659340
335,huilong,31.8111,121.655,59.0,66,0,1.01,CN,1612659204
336,yumen,40.2833,97.2,27.23,67,100,1.97,CN,1612659468
337,xiongzhou,25.1167,114.3,67.57,59,0,2.73,CN,1612659468
338,dryden,49.7833,-92.7503,-16.6,69,90,19.57,CA,1612659468
339,sitka,57.0531,-135.33,35.6,60,40,11.5,US,1612659456
340,shilovo,54.3204,40.874,-7.82,90,67,10.74,RU,1612659469
341,cayenne,4.9333,-52.3333,77.0,100,90,1.14,GF,1612659469
342,zeerust,-25.5369,26.0751,62.42,90,100,4.09,ZA,1612659469
343,soe,-9.8607,124.284,75.9,78,91,7.83,ID,1612659469
344,novyy urgal,51.0736,132.5642,-9.04,87,96,0.74,RU,1612659469
345,yaan,7.3833,8.5667,76.41,21,0,5.08,NG,1612659469
346,babushkin,51.7122,105.8647,9.95,86,78,3.53,RU,1612659469
347,bosobolo,4.1833,19.9,71.06,30,3,2.42,CD,1612659469
348,kristiansund,63.1115,7.732,21.2,73,1,3.44,NO,1612659469
349,honiara,-9.4333,159.95,78.66,86,100,7.85,SB,1612659469
350,shizunai,42.3339,142.3669,30.76,90,100,10.94,JP,1612659470
351,las vegas,36.175,-115.1372,66.99,16,1,8.05,US,1612659436
352,wakkanai,45.4094,141.6739,14.0,85,75,11.5,JP,1612659231
353,urengoy,65.9667,78.3667,-15.75,88,100,13.53,RU,1612659470
354,marsa matruh,31.3525,27.2453,50.0,87,0,6.91,EG,1612659470
355,oppdal,62.5943,9.6912,8.56,76,0,4.85,NO,1612659470
356,da nang,16.0678,108.2208,69.8,94,75,2.3,VN,1612659471
357,blagoyevo,63.3667,47.9167,-21.96,83,80,10.22,RU,1612659471
358,mangan,27.5167,88.5333,45.88,50,7,8.05,IN,1612659471
359,mizdah,31.4451,12.9801,60.84,31,100,5.19,LY,1612659471
360,dhidhdhoo,6.8833,73.1,81.3,68,0,9.17,MV,1612659245
361,mehamn,71.0357,27.8492,25.72,93,100,21.52,NO,1612659471
362,yacuiba,-22.038,-63.6797,70.61,64,11,1.59,BO,1612659303
363,magan,39.9683,-3.931,51.01,71,99,4.0,ES,1612659471
364,goderich,43.7501,-81.7165,21.2,63,100,14.97,CA,1612659471
365,acari,-15.4311,-74.6158,72.39,71,100,3.94,PE,1612659472
366,axim,4.8699,-2.2405,79.74,87,60,10.31,GH,1612659309
367,ugoofaaru,5.6667,73.0,81.39,72,23,10.45,MV,1612659328
368,xuddur,4.1213,43.8894,65.84,90,1,14.34,SO,1612659472
369,timaru,-44.4,171.25,66.99,78,0,4.0,NZ,1612659464
370,mount pleasant,32.7941,-79.8626,46.99,100,90,9.22,US,1612659472
371,leningradskiy,69.3833,178.4167,-9.98,74,0,5.64,RU,1612659472
372,roma,43.2128,-75.4557,23.0,50,1,4.61,US,1612659465
373,borovskoy,53.8,64.15,9.01,91,100,25.61,KZ,1612659472
374,inirida,3.8653,-67.9239,75.81,93,99,2.21,CO,1612659472
375,bilibino,68.0546,166.4372,-4.58,80,0,3.02,RU,1612659472
376,dum duma,27.5667,95.5667,60.8,88,75,8.05,IN,1612659472
377,caravelas,-17.7125,-39.2481,78.03,86,100,10.27,BR,1612659473
378,puerto del rosario,28.5004,-13.8627,60.8,67,20,10.36,ES,1612659473
379,dangara,29.6799,75.8931,48.04,70,0,5.88,IN,1612659473
380,normandin,48.8333,-72.5321,17.6,85,77,8.05,CA,1612659473
381,isetskoye,56.4858,65.3226,21.16,97,100,17.36,RU,1612659473
382,mbandaka,0.0487,18.2603,74.41,81,6,3.47,CD,1612659473
383,bam,29.106,58.357,52.32,34,0,7.23,IR,1612659473
384,mogadishu,2.0371,45.3438,75.78,83,2,16.28,SO,1612659327
385,fukue,32.6881,128.8419,53.6,71,20,3.44,JP,1612659473
386,mantua,45.1667,10.7833,48.99,96,100,1.99,IT,1612659473
387,salta,-24.7859,-65.4117,73.4,60,40,5.75,AR,1612659473
388,jardim,-21.4803,-56.1381,67.98,74,0,3.56,BR,1612659474
389,hukuntsi,-24.0,21.75,67.73,88,0,9.19,BW,1612659474
390,balabac,7.9868,117.0645,81.82,78,100,15.79,PH,1612659474
391,hami,42.8,93.45,30.76,76,100,6.31,CN,1612659387
392,grand baie,-20.0182,57.5802,75.99,86,1,1.99,MU,1612659474
393,mao,39.8885,4.2658,55.4,88,20,10.36,ES,1612659474
394,el ejido,36.7763,-2.8146,55.4,76,0,17.27,ES,1612659474
395,alofi,-19.0595,-169.9187,86.0,74,100,11.5,NU,1612659375
396,baylo,7.8539,126.0581,75.52,92,100,3.15,PH,1612659475
397,kloulklubed,7.0419,134.2556,80.6,89,90,23.02,PW,1612659475
398,usogorsk,63.4106,48.6872,-20.69,83,90,10.76,RU,1612659475
399,camacupa,-12.0167,17.4833,62.4,96,100,4.92,AO,1612659390
400,nome,64.5011,-165.4064,17.6,79,90,4.61,US,1612659206
401,rio cuarto,-33.1307,-64.3499,73.4,73,0,12.66,AR,1612659475
402,dzhida,50.6772,106.1806,-3.03,88,100,4.41,RU,1612659475
403,altay,47.8667,88.1167,21.34,86,0,3.67,CN,1612659472
404,basco,20.4487,121.9702,74.12,88,100,22.97,PH,1612659475
405,male,4.1748,73.5089,80.6,83,20,8.05,MV,1612659245
406,olafsvik,64.8945,-23.7142,33.04,85,2,15.86,IS,1612659475
407,biharamulo,-2.6319,31.3089,62.85,91,96,1.88,TZ,1612659475
408,tautira,-17.7333,-149.15,86.0,58,20,14.97,PF,1612659178
409,kosh-agach,50.0,88.6667,-2.67,86,9,1.79,RU,1612659380
410,nueve de julio,-35.4444,-60.8831,73.99,64,0,8.25,AR,1612659476
411,atar,20.5169,-13.0499,58.55,38,0,11.72,MR,1612659476
412,jiazi,22.8779,116.067,65.84,72,0,12.73,CN,1612659476
413,bud,39.447,-86.1758,24.8,58,90,8.79,US,1612659220
414,eyemouth,55.8713,-2.0901,34.0,97,100,5.99,GB,1612659476
415,eureka,40.8021,-124.1637,53.01,79,0,8.99,US,1612659202
416,rundu,-17.9333,19.7667,69.67,88,95,3.0,NA,1612659476
417,asau,46.4333,26.4,27.0,72,100,4.07,RO,1612659476
418,ewa beach,21.3156,-158.0072,78.8,44,1,13.8,US,1612659477
419,wabag,-5.4781,143.7021,60.62,87,100,1.63,PG,1612659477
420,tahlequah,35.9154,-94.97,39.0,87,90,10.36,US,1612659477
421,notodden,59.5594,9.2585,10.99,81,0,6.4,NO,1612659477
422,general pico,-35.6566,-63.7568,77.0,30,0,11.12,AR,1612659477
423,bontang,0.1333,117.5,80.31,77,100,4.7,ID,1612659477
424,abu samrah,35.3029,37.1841,49.06,73,0,4.54,SY,1612659477
425,zhangye,38.9342,100.4517,27.64,64,14,2.98,CN,1612659474
426,glossa,35.4717,23.7763,57.0,82,20,7.87,GR,1612659477
427,itabira,-19.6192,-43.2269,67.59,98,100,2.91,BR,1612659477
428,san quintin,30.4833,-115.95,61.97,67,0,9.17,MX,1612659478
429,tilichiki,60.4667,166.1,16.02,88,100,17.69,RU,1612659478
430,truth or consequences,33.1284,-107.2528,60.8,12,1,12.66,US,1612659376
431,hambantota,6.1241,81.1185,71.6,100,0,3.44,LK,1612659478
432,comodoro rivadavia,-45.8667,-67.5,57.2,72,40,9.22,AR,1612659478
433,yumbe,3.4651,31.2469,70.36,22,5,9.17,UG,1612659478
434,gravelbourg,49.8834,-106.5512,-14.8,64,97,5.75,CA,1612659198
435,grindavik,63.8424,-22.4338,33.8,60,0,20.71,IS,1612659478
436,terrace,54.5163,-128.6035,32.0,93,90,8.05,CA,1612659478
437,ahipara,-35.1667,173.1667,70.07,64,96,2.13,NZ,1612659408
438,moranbah,-22.0016,148.0466,89.65,49,100,7.16,AU,1612659479
439,flinders,-34.5833,150.8552,82.0,60,1,5.01,AU,1612659479
440,havoysund,70.9963,24.6622,27.68,93,100,23.26,NO,1612659479
441,kassala,15.451,36.4,55.49,65,0,7.47,SD,1612659479
442,sistranda,63.7256,8.834,23.0,80,75,9.22,NO,1612659479
443,quatre cocos,-20.2078,57.7625,77.0,83,40,4.61,MU,1612659187
444,issaquah,47.5301,-122.0326,48.99,95,88,4.0,US,1612659479
445,sawakin,19.1059,37.3321,71.26,71,31,11.34,SD,1612659479
446,warka,51.7843,21.1909,17.01,60,99,3.0,PL,1612659479
447,richmond,37.5538,-77.4603,46.99,42,75,3.44,US,1612659204
448,oktyabrskiy,54.4815,53.471,-2.65,89,100,14.32,RU,1612659479
449,elko,41.0002,-115.5012,50.0,27,1,18.41,US,1612659439
450,coquimbo,-29.9533,-71.3436,60.8,82,0,10.36,CL,1612659418
451,bara,10.3744,10.7288,69.62,23,100,9.51,NG,1612659480
452,vila velha,-20.3297,-40.2925,82.0,88,75,4.61,BR,1612659203
453,krasnoborsk,61.5598,45.934,-11.94,87,100,9.53,RU,1612659480
454,afsin,38.2477,36.914,30.47,90,0,1.25,TR,1612659480
455,canoa,18.355,-71.1585,73.71,78,34,5.79,DO,1612659480
456,faanui,-16.4833,-151.75,82.89,65,0,8.75,PF,1612659480
457,faya,18.3851,42.4509,46.4,81,20,1.88,SA,1612659204
458,ondjiva,-17.0667,15.7333,77.25,48,100,8.01,AO,1612659481
459,denpasar,-8.65,115.2167,82.4,83,20,3.44,ID,1612659438
460,kolondieba,11.0882,-6.8926,80.92,18,99,4.92,ML,1612659481
461,luderitz,-26.6481,15.1594,68.13,66,0,21.56,NA,1612659325
462,kaspiysk,42.8816,47.6392,30.2,80,0,4.47,RU,1612659481
463,gamba,-2.65,10.0,77.86,89,100,0.65,GA,1612659214
464,kitimat,54.0524,-128.6534,34.0,92,94,2.55,CA,1612659411
465,araouane,18.9048,-3.5265,69.58,26,95,18.37,ML,1612659481
466,mendoza,-32.8908,-68.8272,87.8,29,20,6.91,AR,1612659481
467,grand forks,47.9417,-97.4337,-13.0,64,1,12.66,US,1612659482
468,chernyshevskiy,63.0128,112.4714,-29.06,87,100,2.26,RU,1612659482
469,shelburne,44.0787,-80.2041,17.6,73,90,11.5,CA,1612659482
470,berdigestyakh,62.0989,126.6992,-34.96,81,14,4.23,RU,1612659482
471,ahuimanu,21.4447,-157.8378,78.8,47,20,13.8,US,1612659400
472,bacolod,10.6667,122.95,82.72,73,4,12.93,PH,1612659482
473,central point,42.376,-122.9164,48.0,61,1,0.81,US,1612659183
474,gat,31.61,34.7642,55.99,100,0,1.52,IL,1612659465
475,voskresenskoye,56.8381,45.4317,-5.85,90,100,9.53,RU,1612659482
476,fort nelson,58.8053,-122.7002,-14.8,64,1,2.3,CA,1612659473
477,korla,41.7597,86.1469,24.44,87,6,1.3,CN,1612659190
478,gejiu,23.306,103.1635,49.1,100,88,4.16,CN,1612659483
479,helong,42.5397,128.9972,13.69,78,0,5.88,CN,1612659483
480,bikaner,28.0167,73.3,55.15,38,0,6.8,IN,1612659483
481,dubbo,-32.25,148.6167,77.0,65,94,3.44,AU,1612659483
482,wilmington,34.2257,-77.9447,48.99,66,90,6.91,US,1612659483
483,samoded,63.6083,40.5111,-12.05,89,30,7.29,RU,1612659483
484,yatou,37.15,122.3833,36.28,74,0,19.84,CN,1612659367
485,ngunguru,-35.6167,174.5,69.01,76,100,8.99,NZ,1612659484
486,yar-sale,66.8333,70.8333,-27.92,86,100,16.15,RU,1612659242
487,novo aripuana,-5.1206,-60.3797,75.13,98,100,2.06,BR,1612659484
488,lavrentiya,65.5833,-171.0,-9.15,79,0,0.63,RU,1612659348
489,barranca,-10.75,-77.7667,70.2,81,100,5.44,PE,1612659484
490,tuatapere,-46.1333,167.6833,71.89,45,2,4.14,NZ,1612659484
491,chifeng,42.2683,118.9636,5.67,87,0,5.01,CN,1612659226
492,smolensk,55.0,33.0,-2.78,92,68,6.6,RU,1612659484
493,makat,47.6469,53.3463,26.58,82,78,11.83,KZ,1612659484
494,nieuwpoort,51.1244,2.7735,32.0,100,90,17.27,BE,1612659484
495,dingle,10.9995,122.6711,80.51,82,71,13.96,PH,1612659456
496,halifax,44.6453,-63.5724,33.8,75,18,16.11,CA,1612659202
497,wagar,16.1525,36.2032,57.85,68,0,11.34,SD,1612659485
498,tigil,57.8,158.6667,19.71,92,100,27.63,RU,1612659485
499,sukhoy log,56.9094,62.0296,13.33,95,100,17.13,RU,1612659485
500,pundaguitan,6.3711,126.1689,80.65,77,100,8.61,PH,1612659485
501,shimoda,34.6667,138.95,55.4,62,20,6.91,JP,1612659485
502,toora-khem,52.4675,96.11,-1.93,89,0,1.9,RU,1612659485
503,samarai,-10.6167,150.6667,86.27,68,47,4.43,PG,1612659485
504,astorga,-23.2325,-51.6656,77.0,53,20,3.44,BR,1612659486
505,bandar-e lengeh,26.5579,54.8807,68.0,83,0,13.8,IR,1612659486
506,waipawa,-41.4122,175.5153,75.0,68,100,9.22,NZ,1612659330
507,malanje,-9.5402,16.341,64.9,99,100,5.26,AO,1612659233
508,san juan,-31.5375,-68.5364,85.32,30,0,7.9,AR,1612659486
509,abu kamal,34.4506,40.9171,51.66,55,0,9.71,SY,1612659228
510,udachnyy,66.4167,112.4,-36.13,80,1,6.26,RU,1612659486
511,point pleasant,40.0832,-74.0682,39.99,48,1,4.61,US,1612659486
512,kupang,-10.1667,123.5833,84.2,89,40,10.36,ID,1612659229
513,aykhal,66.0,111.5,-31.7,82,3,9.19,RU,1612659486
514,kiruna,67.8557,20.2251,19.4,86,90,8.05,SE,1612659486
515,labrea,-7.2586,-64.7981,75.72,96,99,2.44,BR,1612659188
516,hyeres,43.1167,6.1167,59.0,72,0,14.97,FR,1612659282
517,lakselv,70.0513,24.9718,23.0,86,90,18.41,NO,1612659487
518,mobaye,4.319,21.1786,68.88,30,0,3.29,CF,1612659487
519,sudak,44.85,34.9667,36.55,88,100,10.56,UA,1612659487
520,kirkwall,58.9848,-2.9587,32.0,93,75,19.57,GB,1612659487
521,antofagasta,-23.65,-70.4,66.2,77,75,10.36,CL,1612659348
522,ulladulla,-35.35,150.4667,78.01,57,40,5.75,AU,1612659487
523,mporokoso,-9.3727,30.125,63.82,97,100,2.82,ZM,1612659487
524,pocosol,10.3667,-84.6167,75.2,78,20,6.91,CR,1612659487
525,esna,25.2934,32.554,57.2,72,0,5.08,EG,1612659245
526,back mountain,41.3359,-75.9963,32.0,34,1,3.44,US,1612659238
527,broome,42.2506,-75.833,24.8,33,1,3.44,US,1612659488
528,dabat,12.9842,37.765,43.45,56,0,5.28,ET,1612659488
529,cartagena,10.3997,-75.5144,80.6,83,0,8.05,CO,1612659439
530,otradnoye,59.7775,30.8181,10.4,79,75,17.9,RU,1612659488
531,xinzhou,38.4092,112.7333,31.53,80,0,2.77,CN,1612659488
532,padang,-0.9492,100.3543,75.2,83,20,2.3,ID,1612659346
533,luanda,-8.8368,13.2343,78.8,83,40,9.22,AO,1612659488
534,kodinsk,58.6881,99.1844,17.29,96,100,6.02,RU,1612659488
535,katobu,-4.9408,122.5276,82.71,78,100,3.4,ID,1612659321
536,gazanjyk,39.2446,55.5154,45.72,85,100,9.84,TM,1612659489
537,tutoia,-2.7619,-42.2744,80.85,78,96,12.95,BR,1612659489
538,poum,-20.2333,164.0167,79.99,68,0,4.83,NC,1612659489
539,nakskov,54.8373,11.1284,30.0,76,100,18.01,DK,1612659489
540,staryy nadym,65.6118,72.6842,-17.28,87,100,16.11,RU,1612659489
541,kousseri,12.0769,15.0306,67.71,21,45,11.12,CM,1612659489
542,jaisalmer,26.9147,70.9181,58.14,33,0,7.7,IN,1612659489
543,laguna,38.421,-121.4238,64.4,45,1,5.75,US,1612659191
544,teguldet,57.3064,88.1667,30.61,98,100,8.08,RU,1612659489
545,auki,-8.7676,160.7034,76.44,93,100,12.8,SB,1612659237
546,bonthe,7.5264,-12.505,78.28,80,4,5.64,SL,1612659235
547,kalmunai,7.4167,81.8167,76.33,89,18,7.9,LK,1612659193
548,revyakino,54.3669,37.6589,-7.55,92,86,10.38,RU,1612659490
549,caborca,30.5838,-111.101,73.0,18,0,3.0,MX,1612659490
550,ejido,8.5514,-71.2375,70.25,68,100,1.54,VE,1612659490
551,cayambe,0.05,-78.1333,62.6,77,75,8.05,EC,1612659490
552,balkanabat,39.5108,54.3671,48.65,61,100,8.9,TM,1612659490
553,havelock,34.8791,-76.9013,45.0,57,90,6.91,US,1612659229
554,puerto baquerizo moreno,-0.9,-89.6,76.93,84,51,7.81,EC,1612659490
555,cabittaogan,17.5828,120.3656,75.2,83,75,2.3,PH,1612659490
556,nyurba,63.2842,118.3319,-29.85,84,81,2.91,RU,1612659490
557,naze,28.3667,129.4833,66.2,63,20,6.91,JP,1612659491
558,carutapera,-1.195,-46.02,78.69,84,89,6.69,BR,1612659473
559,naryan-mar,67.6713,53.087,-26.27,85,99,13.15,RU,1612659491
560,brownsville,25.9018,-97.4975,71.6,68,40,9.22,US,1612659491
561,lumphat,13.4878,106.9816,74.3,64,97,7.96,KH,1612659491
562,westport,41.1415,-73.3579,41.0,38,1,10.36,US,1612659198
563,blackwater,-23.5833,148.8833,92.97,45,49,8.75,AU,1612659491
564,virginia beach,36.8529,-75.978,46.0,57,100,11.5,US,1612659399
565,myitkyina,25.3833,97.4,56.23,62,0,2.44,MM,1612659491
566,cherskiy,68.75,161.3,-3.33,81,0,4.7,RU,1612659297
567,kaitangata,-46.2817,169.8464,66.0,73,11,5.01,NZ,1612659457
568,fredericksburg,38.3032,-77.4605,44.01,61,1,3.44,US,1612659466
569,petropavlovsk-kamchatskiy,53.0452,158.6483,28.4,59,40,13.42,RU,1612659492
570,bonavista,48.6499,-53.1147,39.99,93,100,3.44,CA,1612659492
571,saint austell,50.3383,-4.7658,39.0,87,20,10.36,GB,1612659492
572,chichigalpa,12.5776,-87.027,75.74,82,0,3.58,NI,1612659492
573,atherton,53.5237,-2.4935,39.0,80,100,7.0,GB,1612659492
574,namatanai,-3.6667,152.4333,86.18,62,99,5.37,PG,1612659330
575,boguchany,58.3814,97.4531,15.85,95,100,5.7,RU,1612659492
576,longonjo,-12.9067,15.2533,63.39,72,100,2.48,AO,1612659492
577,fort frances,48.5999,-93.4003,-14.01,64,90,8.05,CA,1612659493
578,margate,51.3813,1.3862,37.0,85,100,8.01,GB,1612659368
579,orapa,-21.2833,25.3667,71.92,82,100,10.45,BW,1612659493
580,muncar,-8.4333,114.3333,77.9,86,98,1.95,ID,1612659493
581,kafanchan,9.5833,8.3,70.72,23,100,5.97,NG,1612659493
582,chalon-sur-saone,46.7833,4.85,48.99,89,100,3.0,FR,1612659255
583,saint-joseph,-21.3667,55.6167,78.8,73,75,4.61,RE,1612659493
584,deshnok,27.7986,73.3447,55.29,37,0,6.85,IN,1612659493
585,umm lajj,25.0213,37.2685,68.41,47,0,16.22,SA,1612659493
586,ardakan,32.31,54.0175,48.2,46,0,4.61,IR,1612659208
587,lumberton,34.6182,-79.0086,48.2,57,90,8.52,US,1612659404
588,cumberland,35.0502,-78.8664,48.0,53,90,5.75,US,1612659494
589,njombe,-9.3333,34.7667,58.73,92,100,2.82,TZ,1612659494
590,bandarbeyla,9.4942,50.8122,74.86,81,0,11.45,SO,1612659494
591,derzhavinsk,51.1,66.3167,9.46,93,100,26.46,KZ,1612659494
592,pouebo,-20.4,164.5667,84.38,57,3,2.89,NC,1612659494
593,garbolovo,60.3413,30.4955,10.4,79,75,17.9,RU,1612659494
594,russell,32.3502,-85.1999,42.8,87,90,10.36,US,1612659494
595,brae,60.3964,-1.353,33.8,64,90,16.11,GB,1612659494
596,jinchang,38.4953,102.1739,28.53,68,0,3.4,CN,1612659330
597,kokubu,31.7333,130.7667,51.8,82,20,11.5,JP,1612659495
598,qaqortoq,60.7167,-46.0333,21.25,82,90,6.24,GL,1612659495
599,djibo,14.1022,-1.6306,78.1,18,100,9.51,BF,1612659495
600,san cristobal,7.7669,-72.225,82.4,65,100,2.3,VE,1612659495
