City ID,City,Lat,lng,Max Temp,Humidity,Cloudiness,Wind Speed,Country,Date
0,nouadhibou,20.931,-17.0347,69.8,64,85,11.5,MR,1615492629
1,broome,42.2506,-75.833,60.8,44,75,14.97,US,1615492629
2,punta arenas,-53.15,-70.9167,51.8,66,75,28.77,CL,1615492630
3,torbay,47.6666,-52.7314,37.0,69,90,24.16,CA,1615492630
4,thompson,55.7435,-97.8558,1.4,55,20,11.5,CA,1615492630
5,pisco,-13.7,-76.2167,82.4,61,0,16.11,PE,1615492630
6,hobyo,5.3505,48.5268,79.36,80,4,15.97,SO,1615492631
7,vaini,-21.2,-175.2,75.2,78,75,9.22,TO,1615492631
8,penzance,50.1186,-5.5371,46.4,71,20,18.41,GB,1615492631
9,mataura,-46.1927,168.8643,46.0,94,0,5.01,NZ,1615492632
10,rikitea,-23.1203,-134.9692,79.34,78,100,14.41,PF,1615492632
11,pacific grove,36.6177,-121.9166,53.6,58,20,5.75,US,1615492632
12,kedougou,12.5579,-12.1743,88.12,14,96,3.65,SN,1615492632
13,pangnirtung,66.1451,-65.7125,-13.0,70,75,1.83,CA,1615492633
14,gao,16.6362,1.637,83.89,10,0,10.83,ML,1615492633
15,taoudenni,22.6783,-3.9836,71.67,27,0,13.22,ML,1615492633
16,kavieng,-2.5744,150.7967,81.57,67,99,5.91,PG,1615492634
17,monze,-16.2833,27.4833,64.8,91,100,3.69,ZM,1615492634
18,hermanus,-34.4187,19.2345,68.0,72,81,4.0,ZA,1615492634
19,bubaque,11.2833,-15.8333,78.87,62,65,17.69,GW,1615492634
20,bethel,41.3712,-73.414,69.8,32,1,11.5,US,1615492635
21,jiwani,25.05,61.7417,73.38,76,0,4.03,PK,1615492635
22,cabo san lucas,22.8909,-109.9124,79.0,46,75,2.3,MX,1615492635
23,jamestown,42.097,-79.2353,60.8,59,90,21.34,US,1615492636
24,ushuaia,-54.8,-68.3,39.2,93,90,29.93,AR,1615492601
25,bredasdorp,-34.5322,20.0403,66.2,77,83,9.22,ZA,1615492636
26,saint george,37.1041,-113.5841,46.99,75,90,10.36,US,1615492375
27,cape town,-33.9258,18.4232,68.0,73,0,2.3,ZA,1615492636
28,hithadhoo,-0.6,73.0833,82.38,64,0,5.64,MV,1615492637
29,atuona,-9.8,-139.0333,79.74,68,3,10.69,PF,1615492637
30,saint-augustin,51.226,-58.6502,34.79,99,100,4.23,CA,1615492637
31,dingle,10.9995,122.6711,73.42,96,100,11.32,PH,1615492638
32,chokurdakh,70.6333,147.9167,-19.77,82,68,7.05,RU,1615492638
33,albany,42.6001,-73.9662,66.0,39,75,12.66,US,1615492504
34,saldanha,-33.0117,17.9442,64.4,68,96,3.44,ZA,1615492638
35,barrow,71.2906,-156.7887,-11.2,70,1,9.22,US,1615492638
36,esperance,-33.8667,121.9,68.0,94,90,5.75,AU,1615492639
37,fairbanks,64.8378,-147.7164,-2.99,65,1,14.97,US,1615492571
38,cam ranh,11.9214,109.1591,75.2,78,20,3.44,VN,1615492639
39,aklavik,68.2191,-135.0107,-0.4,78,90,21.85,CA,1615492639
40,hilo,19.7297,-155.09,73.4,73,90,4.61,US,1615492640
41,provideniya,64.3833,-173.3,-11.2,77,0,5.1,RU,1615492640
42,kavaratti,10.5669,72.642,82.89,68,99,4.29,IN,1615492640
43,faanui,-16.4833,-151.75,82.42,76,99,15.08,PF,1615492640
44,mlonggo,-6.5333,110.7,78.46,83,96,3.87,ID,1615492641
45,saint-philippe,-21.3585,55.7679,75.2,57,20,4.61,RE,1615492641
46,manacapuru,-3.2997,-60.6206,80.6,78,75,4.61,BR,1615492641
47,mayumba,-3.432,10.6554,80.47,82,87,7.29,GA,1615492642
48,mar del plata,-38.0023,-57.5575,69.8,64,0,13.8,AR,1615492642
49,maua,-23.6678,-46.4614,80.6,73,40,3.44,BR,1615492642
50,victoria,22.2855,114.1577,69.01,83,42,8.01,HK,1615492541
51,mount gambier,-37.8333,140.7667,51.8,100,90,4.61,AU,1615492643
52,georgetown,5.4112,100.3354,80.6,78,20,5.53,MY,1615492519
53,dikson,73.5069,80.5464,-14.24,94,100,23.04,RU,1615492643
54,yar-sale,66.8333,70.8333,-15.95,92,90,18.99,RU,1615492643
55,busselton,-33.65,115.3333,63.0,94,100,4.0,AU,1615492644
56,petropavlovsk-kamchatskiy,53.0452,158.6483,24.8,80,40,4.47,RU,1615492644
57,hope,33.6671,-93.5916,73.0,53,100,5.99,US,1615492644
58,araouane,18.9048,-3.5265,72.12,19,0,12.66,ML,1615492644
59,tolaga bay,-38.3667,178.3,61.09,78,99,14.56,NZ,1615492645
60,ushtobe,45.2514,77.9838,36.36,67,54,4.21,KZ,1615492645
61,comodoro rivadavia,-45.8667,-67.5,77.0,27,0,24.16,AR,1615492578
62,playas,-2.6333,-80.3833,81.79,70,28,7.09,EC,1615492645
63,yellowknife,62.456,-114.3525,8.01,66,75,16.11,CA,1615492646
64,port alfred,-33.5906,26.891,66.99,85,93,3.0,ZA,1615492646
65,verkhniy lomov,53.4678,43.5511,0.66,96,0,7.07,RU,1615492646
66,chuy,-33.6971,-53.4616,75.97,56,0,4.74,UY,1615492646
67,port blair,11.6667,92.75,79.29,78,0,7.14,IN,1615492647
68,kimberley,-28.7323,24.7623,64.4,42,0,2.3,ZA,1615492647
69,guerrero negro,27.9769,-114.0611,63.23,46,100,14.14,MX,1615492647
70,hasaki,35.7333,140.8333,50.0,87,75,2.3,JP,1615492648
71,bluff,-46.6,168.3333,46.0,94,4,5.01,NZ,1615492648
72,hirara,24.8,125.2833,71.28,82,0,15.59,JP,1615492648
73,nikolskoye,59.7035,30.7861,21.0,63,0,8.95,RU,1615492648
74,hobart,-42.8794,147.3294,57.2,88,20,5.75,AU,1615492625
75,butaritari,3.0707,172.7902,80.85,76,72,13.69,KI,1615492649
76,palmer,42.1584,-72.3287,69.8,34,20,12.66,US,1615492649
77,leningradskiy,69.3833,178.4167,-11.74,62,2,3.74,RU,1615492650
78,christchurch,-43.5333,172.6333,57.99,77,90,1.14,NZ,1615492500
79,ponta do sol,32.6667,-17.1,60.8,77,40,9.22,PT,1615492650
80,tuktoyaktuk,69.4541,-133.0374,1.4,85,90,12.66,CA,1615492650
81,san policarpo,12.1791,125.5072,76.35,92,100,15.7,PH,1615492650
82,shimoda,34.6667,138.95,46.0,91,100,9.37,JP,1615492651
83,mount isa,-20.7333,139.5,73.4,100,98,3.44,AU,1615492651
84,cherskiy,68.75,161.3,-14.82,77,0,5.37,RU,1615492651
85,east london,-33.0153,27.9116,70.68,71,100,11.3,ZA,1615492652
86,savannah bight,16.45,-85.85,82.4,74,40,4.61,HN,1615492652
87,cayenne,4.9333,-52.3333,82.4,74,75,13.8,GF,1615492652
88,kirakira,-10.4544,161.9205,79.34,81,81,0.69,SB,1615492653
89,iralaya,15.0,-83.2333,86.0,74,40,9.22,HN,1615492653
90,nanortalik,60.1432,-45.2371,20.41,79,65,11.95,GL,1615492653
91,lahad datu,5.0268,118.327,74.1,92,100,3.83,MY,1615492653
92,puerto ayora,-0.7393,-90.3518,84.2,74,40,9.22,EC,1615492654
93,castro,-24.7911,-50.0119,77.59,62,40,3.98,BR,1615492654
94,carnarvon,-24.8667,113.6333,77.0,88,40,6.91,AU,1615492654
95,omsukchan,62.5333,155.8,-13.94,75,82,1.07,RU,1615492654
96,san patricio,28.017,-97.5169,82.0,57,90,25.32,US,1615492655
97,saskylakh,71.9167,114.0833,-10.97,88,100,18.07,RU,1615492655
98,morwa,22.9,73.8333,72.61,33,0,3.67,IN,1615492655
99,salalah,17.0151,54.0924,77.0,50,0,3.44,OM,1615492656
100,upata,8.0086,-62.3989,80.28,71,27,7.2,VE,1615492656
101,sol-iletsk,51.1631,54.9918,-9.15,99,82,7.85,RU,1615492656
102,soyo,-6.1349,12.3689,81.01,78,99,8.12,AO,1615492657
103,yarada,17.65,83.2667,77.0,88,20,2.3,IN,1615492657
104,celestun,20.8667,-90.4,84.18,60,0,14.2,MX,1615492657
105,landskrona,55.8708,12.8302,42.01,95,100,5.99,SE,1615492657
106,sibolga,1.7427,98.7792,75.85,87,95,3.44,ID,1615492658
107,vostok,46.4856,135.8833,15.3,97,91,3.22,RU,1615492658
108,bon air,37.5249,-77.5578,78.01,29,0,3.0,US,1615492658
109,mahebourg,-20.4081,57.7,80.6,74,40,8.05,MU,1615492658
110,kapaa,22.0752,-159.319,72.0,88,40,3.44,US,1615492659
111,bambous virieux,-20.3428,57.7575,80.6,74,40,8.05,MU,1615492659
112,krasnoye,49.9145,24.6134,35.6,60,90,8.95,UA,1615492659
113,pochutla,15.7432,-96.4661,90.0,48,1,11.5,MX,1615492660
114,palmas de monte alto,-14.2672,-43.1619,81.16,70,95,1.79,BR,1615492660
115,ginda,30.6945,78.4932,49.73,29,0,8.63,IN,1615492660
116,acarau,-2.8856,-40.12,82.38,77,51,15.61,BR,1615492661
117,oranjemund,-28.55,16.4333,66.97,84,1,8.03,NA,1615492661
118,adela,12.4416,120.9729,78.21,74,100,7.94,PH,1615492661
119,bukama,-9.2,25.85,72.55,89,100,0.47,CD,1615492661
120,mikhaylovka,50.06,43.2379,4.98,86,0,6.82,RU,1615492662
121,sungaipenuh,-2.0833,101.3833,63.46,96,77,2.1,ID,1615492662
122,coruripe,-10.1256,-36.1756,81.82,70,56,12.53,BR,1615492630
123,trairi,-3.2778,-39.2689,82.49,74,91,12.01,BR,1615492385
124,asfi,32.2994,-9.2372,59.31,79,0,18.72,MA,1615492663
125,narita,35.7833,140.3167,50.0,87,75,2.3,JP,1615492663
126,lompoc,34.6391,-120.4579,50.0,66,90,8.05,US,1615492663
127,kirkwall,58.9848,-2.9587,41.0,75,75,27.63,GB,1615492663
128,kodiak,57.79,-152.4072,21.2,42,1,29.93,US,1615492664
129,puerto madryn,-42.7692,-65.0385,77.99,29,0,19.24,AR,1615492577
130,avarua,-21.2078,-159.775,82.4,74,90,3.44,CK,1615492664
131,new norfolk,-42.7826,147.0587,57.2,88,20,5.75,AU,1615492664
132,tilichiki,60.4667,166.1,14.68,94,100,10.47,RU,1615492665
133,santa cruz,-17.8,-63.1667,91.4,52,75,14.97,BO,1615492665
134,muncar,-8.4333,114.3333,74.71,87,100,2.55,ID,1615492665
135,mercaderes,1.8009,-77.166,75.33,68,70,3.0,CO,1615492666
136,ueckermunde,53.7379,14.0447,48.0,81,100,8.99,DE,1615492666
137,kassala,15.451,36.4,79.61,52,0,11.32,SD,1615492666
138,san andres,12.5847,-81.7006,84.2,65,75,12.66,CO,1615492408
139,spring valley,36.108,-115.245,52.0,49,75,8.05,US,1615492666
140,kieta,-6.2167,155.6333,78.42,85,100,2.39,PG,1615492667
141,arraial do cabo,-22.9661,-42.0278,82.4,78,20,11.5,BR,1615492667
142,novyy yegorlyk,46.3927,41.8716,21.43,38,100,17.43,RU,1615492667
143,amarante,-6.2411,-42.8547,84.04,82,100,2.17,BR,1615492668
144,codrington,-38.2667,141.9667,55.51,91,45,5.06,AU,1615492668
145,kargasok,59.0556,80.8572,15.19,96,100,5.37,RU,1615492668
146,sitka,57.0531,-135.33,33.8,80,90,12.66,US,1615492668
147,san cristobal,7.7669,-72.225,84.2,58,40,11.5,VE,1615492669
148,tarakan,3.3,117.6333,78.37,81,97,5.75,ID,1615492505
149,port elizabeth,-33.918,25.5701,66.2,77,90,16.11,ZA,1615492669
150,luganville,-15.5333,167.1667,79.41,82,100,7.63,VU,1615492669
151,edd,13.9297,41.6925,86.27,40,0,20.42,ER,1615492670
152,ilulissat,69.2167,-51.1,17.6,53,40,3.44,GL,1615492670
153,xingcheng,40.6167,120.7167,38.98,66,58,7.34,CN,1615492670
154,goure,13.9835,10.2704,81.05,12,70,2.91,NE,1615492670
155,faya,18.3851,42.4509,64.4,82,0,5.75,SA,1615492671
156,nome,64.5011,-165.4064,-20.0,83,1,2.53,US,1615492671
157,lorengau,-2.0226,147.2712,81.32,70,48,5.28,PG,1615492671
158,panguipulli,-39.6333,-72.3333,66.2,55,75,9.22,CL,1615492671
159,mandalgovi,45.7625,106.2708,27.46,81,0,5.28,MN,1615492672
160,imbituba,-28.24,-48.6703,78.8,65,20,13.8,BR,1615492538
161,tiksi,71.6872,128.8694,-10.82,88,100,20.62,RU,1615492672
162,dunedin,-45.8742,170.5036,55.99,76,42,3.65,NZ,1615492672
163,humaita,-7.5061,-63.0208,80.08,91,100,4.56,BR,1615492673
164,sao filipe,14.8961,-24.4956,70.03,76,100,4.99,CV,1615492673
165,kadnikov,59.5022,40.338,1.44,95,11,5.19,RU,1615492673
166,qaanaaq,77.484,-69.3632,2.41,60,55,2.17,GL,1615492673
167,yatou,37.15,122.3833,43.14,69,98,6.64,CN,1615492674
168,santa maria,-29.6842,-53.8069,82.4,39,0,6.91,BR,1615492674
169,necochea,-38.5473,-58.7368,71.01,44,0,1.99,AR,1615492674
170,samarai,-10.6167,150.6667,82.38,73,21,3.33,PG,1615492675
171,ndola,-12.9587,28.6366,64.83,97,100,6.13,ZM,1615492675
172,tambovka,50.0969,128.0489,17.6,62,0,2.24,RU,1615492675
173,pevek,69.7008,170.3133,-17.46,77,69,13.27,RU,1615492675
174,cidreira,-30.1811,-50.2056,76.39,62,0,9.15,BR,1615492676
175,buchanan,5.8808,-10.0467,75.2,100,75,5.84,LR,1615492676
176,kendari,-3.945,122.4989,74.21,93,70,3.2,ID,1615492676
177,entre rios,-11.9419,-38.0844,83.57,56,83,9.71,BR,1615492677
178,saint-joseph,-21.3667,55.6167,75.2,57,20,4.61,RE,1615492677
179,la orilla,17.9833,-102.2333,85.57,42,0,9.69,MX,1615492677
180,islamkot,24.6997,70.177,69.64,85,0,9.66,PK,1615492677
181,rafraf,37.1904,10.1837,55.4,62,20,5.75,TN,1615492678
182,olafsvik,64.8945,-23.7142,34.47,77,100,43.84,IS,1615492678
183,lebu,-37.6167,-73.65,62.17,67,0,18.03,CL,1615492679
184,poum,-20.2333,164.0167,78.37,74,100,14.56,NC,1615492679
185,muswellbrook,-32.2667,150.9,68.0,82,87,1.52,AU,1615492679
186,norman wells,65.282,-126.8329,8.6,78,90,18.41,CA,1615492679
187,sebring,27.4956,-81.4409,80.01,44,90,11.5,US,1615492680
188,mocuba,-16.8392,36.9856,74.68,97,100,6.22,MZ,1615492680
189,visnes,59.3556,5.2242,41.0,81,75,17.27,NO,1615492680
190,plouzane,48.3833,-4.6167,48.2,81,40,13.8,FR,1615492681
191,conil,44.9673,3.7177,40.71,92,83,8.88,FR,1615492681
192,qaqortoq,60.7167,-46.0333,24.8,50,40,3.44,GL,1615492681
193,isangel,-19.55,169.2667,71.6,100,20,11.77,VU,1615492682
194,acapulco,16.8634,-99.8901,82.4,74,40,10.36,MX,1615492572
195,sept-iles,50.2001,-66.3821,36.0,100,90,5.75,CA,1615492682
196,grand gaube,-20.0064,57.6608,79.0,75,86,1.99,MU,1615492682
197,khatanga,71.9667,102.5,-15.61,93,100,20.0,RU,1615492682
198,ponferrada,42.5466,-6.5962,52.0,98,93,4.7,ES,1615492683
199,hovd,48.0056,91.6419,33.08,21,78,8.03,MN,1615492683
200,middelburg,-25.7751,29.4648,64.85,55,0,13.11,ZA,1615492683
201,vila,42.0304,-8.1588,48.99,95,98,5.99,PT,1615492684
202,dalvik,65.9702,-18.5286,35.6,87,90,11.5,IS,1615492684
203,ibaiti,-23.8486,-50.1878,75.99,51,0,1.01,BR,1615492684
204,walvis bay,-22.9575,14.5053,66.2,77,0,3.44,NA,1615492684
205,calatayud,41.3535,-1.6432,60.8,71,0,3.44,ES,1615492685
206,kabalo,-6.05,26.9167,73.36,87,14,3.47,CD,1615492685
207,sorland,67.667,12.6934,37.4,65,90,28.77,NO,1615492685
208,kaeo,-35.1,173.7833,57.99,96,5,2.68,NZ,1615492686
209,arcata,40.8665,-124.0828,54.0,71,1,5.75,US,1615492686
210,bengkulu,-3.8004,102.2655,75.54,90,92,4.29,ID,1615492686
211,maniitsoq,65.4167,-52.9,19.38,78,99,0.36,GL,1615492686
212,huarmey,-10.0681,-78.1522,78.67,67,35,11.65,PE,1615492687
213,arica,-18.475,-70.3042,78.8,53,0,17.27,CL,1615492687
214,brigantine,39.4101,-74.3646,68.0,39,1,11.5,US,1615492437
215,nokaneng,-19.6667,22.2667,74.23,60,31,4.83,BW,1615492687
216,makokou,0.5738,12.8642,72.28,96,100,2.37,GA,1615492688
217,roald,62.5833,6.1333,44.6,61,75,10.36,NO,1615492688
218,narsaq,60.9167,-46.05,24.8,50,40,3.44,GL,1615492688
219,rossosh,51.1209,38.5116,12.69,73,0,4.59,RU,1615492688
220,oxapampa,-10.5775,-75.4017,70.12,74,38,3.8,PE,1615492689
221,upernavik,72.7868,-56.1549,0.66,83,5,5.17,GL,1615492689
222,alofi,-19.0595,-169.9187,77.0,83,32,4.61,NU,1615492689
223,springbok,-29.6643,17.8865,66.54,71,0,3.22,ZA,1615492690
224,wanaka,-44.7,169.15,50.0,91,62,0.49,NZ,1615492600
225,beringovskiy,63.05,179.3167,1.49,75,40,5.84,RU,1615492690
226,puro,12.4841,123.3827,75.2,90,100,12.33,PH,1615492690
227,lumut,4.2323,100.6298,77.0,88,40,6.22,MY,1615492691
228,rock springs,41.5875,-109.2029,26.6,74,40,12.66,US,1615492398
229,haimen,23.1935,116.6142,62.6,88,0,2.24,CN,1615492691
230,banda aceh,5.5577,95.3222,79.34,76,0,3.38,ID,1615492687
231,dangriga,16.9692,-88.2321,82.0,78,2,8.99,BZ,1615492691
232,guaratinga,-16.5667,-39.5667,80.6,69,40,14.97,BR,1615492692
233,iqaluit,63.7506,-68.5145,-13.0,70,75,2.3,CA,1615492692
234,kazachinskoye,57.6953,93.2761,17.4,92,95,6.46,RU,1615492692
235,bacolod,10.6667,122.95,75.67,91,100,16.15,PH,1615492693
236,palu,-0.8917,119.8707,73.56,93,93,2.26,ID,1615492693
237,dauriya,49.9333,116.8667,18.63,74,0,5.84,RU,1615492693
238,ribeira grande,38.5167,-28.7,59.0,72,75,9.22,PT,1615492693
239,verkhnyaya inta,65.9811,60.3094,6.01,91,100,22.26,RU,1615492694
240,tasiilaq,65.6145,-37.6368,21.2,58,75,3.44,GL,1615492694
241,mianyang,31.4593,104.7542,53.87,80,100,1.34,CN,1615492694
242,floro,61.5996,5.0328,41.0,93,75,19.57,NO,1615492695
243,hambantota,6.1241,81.1185,78.64,82,100,14.47,LK,1615492695
244,evensk,61.95,159.2333,5.52,88,100,11.65,RU,1615492695
245,ciudad bolivar,8.1222,-63.5497,90.81,43,95,9.73,VE,1615492695
246,nanga eboko,4.6833,12.3667,73.22,84,95,3.27,CM,1615492696
247,iquitos,-3.7481,-73.2472,86.0,66,75,9.22,PE,1615492405
248,orta nova,41.3299,15.7107,46.4,81,0,6.91,IT,1615492696
249,moba,33.2288,105.0179,40.42,96,78,3.87,CN,1615492696
250,deputatskiy,69.3,139.9,-11.54,91,100,3.15,RU,1615492697
251,gobabis,-22.45,18.9667,73.96,36,3,10.71,NA,1615492697
252,tautira,-17.7333,-149.15,86.0,70,40,4.61,PF,1615492697
253,wahiawa,21.5028,-158.0236,75.2,100,1,4.61,US,1615492697
254,graaff-reinet,-32.2522,24.5308,64.99,73,28,5.99,ZA,1615492698
255,guiratinga,-16.3494,-53.7583,80.37,78,96,2.82,BR,1615492698
256,severnyy,50.677,36.5532,10.4,61,0,8.95,RU,1615492698
257,batouri,4.4333,14.3667,72.81,84,97,2.17,CM,1615492699
258,laguna,38.421,-121.4238,55.0,62,1,14.97,US,1615492699
259,souillac,-20.5167,57.5167,80.6,74,40,8.05,MU,1615492699
260,mecca,21.4267,39.8261,81.14,38,0,3.36,SA,1615492700
261,sao joao da barra,-21.6403,-41.0511,84.2,65,0,13.8,BR,1615492700
262,adre,13.4667,22.2,79.03,9,82,9.66,TD,1615492700
263,longyearbyen,78.2186,15.6401,8.6,72,40,19.57,SJ,1615492694
264,scarborough,54.2797,-0.4044,39.99,82,38,3.0,GB,1615492700
265,kronshtadt,59.9936,29.7736,21.0,63,0,8.95,RU,1615492701
266,rio de janeiro,-22.9028,-43.2075,87.8,89,40,17.27,BR,1615492424
267,felanitx,39.4696,3.1483,59.0,94,75,8.05,ES,1615492701
268,sangar,63.9242,127.4739,-6.36,93,92,6.31,RU,1615492701
269,atlantic beach,30.3344,-81.3987,75.2,64,20,6.91,US,1615492702
270,boulder city,35.9786,-114.8325,51.01,46,75,5.75,US,1615492702
271,presidente medici,-11.1753,-61.9014,81.3,80,44,3.56,BR,1615492702
272,troitskoye,52.9821,84.6757,19.8,90,96,9.19,RU,1615492703
273,touros,-5.1989,-35.4608,86.0,62,40,16.11,BR,1615492703
274,niquero,20.0431,-77.5828,82.83,59,53,21.7,CU,1615492703
275,tura,25.5198,90.2201,70.07,44,0,2.95,IN,1615492703
276,sinnamary,5.3833,-52.95,77.86,88,100,12.35,GF,1615492704
277,rio grande,-32.035,-52.0986,84.2,48,75,5.75,BR,1615492531
278,tutoia,-2.7619,-42.2744,86.0,70,20,14.97,BR,1615492704
279,itarema,-2.9248,-39.9167,82.33,76,51,15.46,BR,1615492704
280,lavrentiya,65.5833,-171.0,-12.1,72,0,6.89,RU,1615492705
281,goundam,16.4145,-3.6708,76.42,14,0,12.8,ML,1615492705
282,limon,10.0,-83.0333,82.4,69,40,4.61,CR,1615492705
283,genhe,50.7833,121.5167,9.27,94,0,2.64,CN,1615492706
284,troitskaya,43.3056,44.9789,21.2,93,100,15.66,RU,1615492706
285,praia da vitoria,38.7333,-27.0667,59.0,67,75,9.73,PT,1615492706
286,portland,45.5234,-122.6762,55.0,60,0,2.35,US,1615492676
287,port hardy,50.6996,-127.4199,41.0,75,75,4.61,CA,1615492706
288,uribia,11.7139,-72.266,91.29,36,0,15.39,CO,1615492707
289,pilar,-9.5972,-35.9567,82.4,69,20,13.8,BR,1615492707
290,churapcha,62.0025,132.4325,-5.13,99,100,4.29,RU,1615492707
291,vardo,70.3705,31.1107,15.8,86,0,31.07,NO,1615492708
292,pitimbu,-7.4706,-34.8086,86.0,66,20,12.66,BR,1615492708
293,goderich,43.7501,-81.7165,53.6,66,95,27.63,CA,1615492708
294,manokwari,-0.8667,134.0833,77.59,81,71,2.46,ID,1615492708
295,port lincoln,-34.7333,135.8667,65.08,86,0,8.59,AU,1615492709
296,araguacu,-12.9306,-49.8264,81.0,78,90,2.73,BR,1615492709
297,yulara,-25.2406,130.9889,77.0,69,59,6.87,AU,1615492709
298,lerwick,60.1545,-1.1494,42.8,75,75,31.07,GB,1615492710
299,linqiong,30.4159,103.4609,57.2,94,40,0.89,CN,1615492710
300,narasannapeta,18.4167,84.05,73.0,90,0,4.38,IN,1615492710
301,divnogorsk,55.9594,92.3619,21.2,63,0,4.47,RU,1615492566
302,avera,33.194,-82.5271,75.2,35,1,8.05,US,1615492710
303,cervo,43.6702,-7.4101,53.01,73,99,3.0,ES,1615492711
304,ixtapa,20.7,-105.2,77.0,61,20,10.36,MX,1615492711
305,sharjah,25.3573,55.4033,77.0,37,0,1.14,AE,1615492711
306,crixas,-14.5489,-49.9692,76.84,85,95,2.68,BR,1615492712
307,kamaishi,39.2667,141.8833,40.24,51,99,5.26,JP,1615492712
308,nshamba,-1.7983,31.5511,69.8,83,0,3.78,TZ,1615492712
309,severo-kurilsk,50.6789,156.125,26.73,91,87,24.65,RU,1615492712
310,orocue,4.7912,-71.3354,95.04,31,7,10.49,CO,1615492713
311,ola,59.5833,151.2833,-3.08,83,100,3.94,RU,1615492713
312,ixtapaluca,19.3167,-98.8833,78.8,8,1,13.8,MX,1615492713
313,gaomi,36.3833,119.7528,45.0,81,0,4.47,CN,1615492713
314,yuzhnyy,53.2542,83.6936,24.8,63,40,15.66,RU,1615492714
315,ayan,56.45,138.1667,8.37,68,0,8.9,RU,1615492714
316,ancud,-41.8697,-73.8203,62.6,72,75,14.97,CL,1615492714
317,isiro,2.7739,27.616,78.08,34,80,1.48,CD,1615492715
318,zhangye,38.9342,100.4517,44.15,25,100,1.3,CN,1615492684
319,yumen,40.2833,97.2,40.41,29,83,6.13,CN,1615492715
320,ntcheu,-14.8203,34.6359,65.68,97,100,1.88,MW,1615492715
321,pachuquilla,20.0667,-98.7,76.77,8,0,10.98,MX,1615492716
322,luderitz,-26.6481,15.1594,68.94,81,0,13.02,NA,1615492716
323,mareeba,-17.0,145.4333,77.0,83,50,6.91,AU,1615492716
324,egvekinot,66.3167,-179.1667,-26.41,98,36,1.25,RU,1615492717
325,padang,-0.9492,100.3543,77.0,94,75,2.3,ID,1615492717
326,farafangana,-22.8167,47.8333,76.44,86,13,8.37,MG,1615492717
327,marsh harbour,26.5412,-77.0636,70.63,72,13,22.7,BS,1615492717
328,lac du bonnet,50.2536,-96.0612,19.0,100,100,10.0,CA,1615492718
329,san matias,-16.3667,-58.4,90.77,43,30,2.1,BO,1615492718
330,kletnya,53.3897,33.2171,10.0,95,100,8.57,RU,1615492718
331,nagaur,27.2,73.7333,71.67,21,36,5.82,IN,1615492718
332,surt,31.2089,16.5887,60.03,70,97,13.11,LY,1615492719
333,amahai,-3.3333,128.9167,79.07,85,99,2.37,ID,1615492719
334,kruisfontein,-34.0033,24.7314,64.99,83,67,8.01,ZA,1615492719
335,ifanadiana,-21.3,47.6333,68.94,98,48,0.96,MG,1615492720
336,melfi,40.9965,15.6514,35.6,69,40,14.97,IT,1615492720
337,jasper,37.2001,-94.3502,46.99,93,90,8.05,US,1615492720
338,port moresby,-9.4431,147.1797,73.4,100,40,5.75,PG,1615492572
339,kushalgarh,23.199,74.4507,74.17,28,0,4.07,IN,1615492721
340,slave lake,55.2834,-114.769,15.8,57,1,9.22,CA,1615492494
341,pachino,36.7186,15.0907,46.4,81,0,4.61,IT,1615492721
342,solnechnyy,50.7214,136.6319,13.93,75,0,4.65,RU,1615492721
343,red wing,44.5625,-92.5338,46.99,49,1,13.8,US,1615492722
344,grindavik,63.8424,-22.4338,33.8,93,90,17.27,IS,1615492722
345,bintulu,3.1667,113.0333,75.2,100,40,3.44,MY,1615492722
346,tucuman,-26.8241,-65.2226,87.8,58,75,5.75,AR,1615492478
347,accra,5.556,-0.1969,84.2,84,0,12.66,GH,1615492584
348,korla,41.7597,86.1469,50.81,36,100,7.47,CN,1615492723
349,la ronge,55.1001,-105.2842,10.4,56,100,4.61,CA,1615492556
350,sur,22.5667,59.5289,77.54,36,0,5.5,OM,1615492723
351,vercelli,45.3231,8.4153,50.0,75,100,4.5,IT,1615492723
352,inirida,3.8653,-67.9239,84.99,71,75,2.26,CO,1615492724
353,manzanillo,20.3433,-77.1167,83.17,51,72,18.05,CU,1615492724
354,lagunas,-5.2269,-75.6753,79.09,92,100,4.47,PE,1615492724
355,riyadh,24.6877,46.7219,78.8,18,0,9.22,SA,1615492541
356,bathsheba,13.2167,-59.5167,84.2,54,40,21.85,BB,1615492724
357,pokaran,26.9167,71.9167,73.36,23,0,8.86,IN,1615492725
358,kupang,-10.1667,123.5833,77.25,85,99,3.71,ID,1615492725
359,muros,42.7762,-9.0603,53.01,84,99,5.91,ES,1615492725
360,karratha,-20.7377,116.8463,85.69,66,85,4.59,AU,1615492726
361,vila velha,-20.3297,-40.2925,84.99,74,20,13.8,BR,1615492726
362,hereford,52.0568,-2.7148,42.01,82,0,16.44,GB,1615492726
363,tawau,4.2498,117.8871,75.2,94,20,4.41,MY,1615492726
364,nishihara,26.1842,127.7558,69.8,78,20,12.66,JP,1615492727
365,astana,51.1801,71.446,1.4,85,75,17.9,KZ,1615492727
366,nioki,-2.7167,17.6833,78.08,76,68,2.26,CD,1615492727
367,peace river,56.2501,-117.286,14.0,57,75,9.22,CA,1615492469
368,geraldton,-28.7667,114.6,71.6,83,56,5.75,AU,1615492728
369,nalut,30.3333,10.85,59.59,49,100,17.56,LY,1615492728
370,kanniyakumari,8.0833,77.5667,80.19,74,1,6.87,IN,1615492648
371,campos belos,-13.0367,-46.7717,78.6,76,54,2.37,BR,1615492728
372,amarante do maranhao,-5.5667,-46.7422,80.73,89,100,2.44,BR,1615492728
373,benguela,-12.5763,13.4055,80.74,80,100,0.94,AO,1615492729
374,sindor,62.8629,51.8905,7.32,87,100,8.43,RU,1615492729
375,ust-omchug,61.15,149.6333,-4.29,98,100,4.43,RU,1615492729
376,gaoua,10.2992,-3.2508,91.04,29,99,2.93,BF,1615492730
377,montepuez,-13.1256,38.9997,71.82,96,100,2.98,MZ,1615492730
378,klaksvik,62.2266,-6.589,35.6,93,75,8.23,FO,1615492730
379,lata,40.1629,-8.3327,57.99,83,100,5.99,PT,1615492730
380,shihezi,44.3,86.0333,33.8,87,100,5.61,CN,1615492731
381,keningau,5.3378,116.1602,78.8,94,20,3.44,MY,1615492731
382,constitucion,-35.3333,-72.4167,66.97,58,0,20.47,CL,1615492731
383,visakhapatnam,17.69,83.2093,77.0,88,20,2.3,IN,1615492677
384,dapaong,10.8639,0.205,87.57,32,98,4.32,TG,1615492732
385,cabra,37.4725,-4.4421,57.0,64,1,1.41,ES,1615492732
386,xuddur,4.1213,43.8894,73.9,78,25,18.32,SO,1615492732
387,diffa,13.3154,12.6113,87.75,8,36,7.38,NE,1615492733
388,ternate,0.8,127.4,80.15,81,100,5.19,ID,1615492733
389,ekuvukeni,-28.4675,30.1551,64.67,86,89,3.62,ZA,1615492733
390,bilma,18.6853,12.9164,85.14,7,99,8.7,NE,1615492733
391,loubomo,-4.1997,12.6739,73.94,96,100,6.6,CG,1615492734
392,clyde river,70.4692,-68.5914,-4.0,71,20,16.11,CA,1615492734
393,baykit,61.67,96.37,13.82,92,100,7.67,RU,1615492734
394,kaoma,-14.7833,24.8,66.65,90,87,3.76,ZM,1615492735
395,mao,39.8885,4.2658,57.2,88,75,13.8,ES,1615492735
396,beroroha,-21.6667,45.1667,74.5,86,2,1.34,MG,1615492735
397,kutum,14.2,24.6667,75.0,8,17,13.53,SD,1615492735
398,saint-leu,-21.15,55.2833,75.2,57,20,4.61,RE,1615492736
399,chicama,-7.8447,-79.1469,77.0,78,0,10.36,PE,1615492736
400,ucluelet,48.9329,-125.5528,48.0,76,40,5.75,CA,1615492618
401,quatre cocos,-20.2078,57.7625,80.6,74,40,8.05,MU,1615492736
402,solikamsk,59.6196,56.7729,1.2,97,100,4.21,RU,1615492737
403,nampula,-15.1165,39.2666,78.8,83,20,4.61,MZ,1615492737
404,alice springs,-23.7,133.8833,75.2,83,100,4.61,AU,1615492737
405,sechura,-5.5569,-80.8222,83.98,56,0,15.12,PE,1615492737
406,okhotsk,59.3833,143.3,-5.22,71,0,13.96,RU,1615492738
407,abu dhabi,24.4667,54.3667,75.2,83,0,2.3,AE,1615492519
408,matay,28.419,30.7792,67.46,38,0,12.46,EG,1615492738
409,ingham,42.6,-84.3833,60.8,33,1,16.11,US,1615492738
410,beloha,-25.1667,45.05,75.06,83,2,4.25,MG,1615492739
411,fortuna,40.5982,-124.1573,55.0,81,1,6.91,US,1615492739
412,hervey bay,-25.2986,152.8535,71.01,90,20,1.01,AU,1615492739
413,samana,19.2056,-69.3369,82.4,78,75,6.91,DO,1615492740
414,abhar,36.1468,49.218,51.13,51,99,22.84,IR,1615492740
415,edwardsville,38.8114,-89.9532,52.0,100,90,5.75,US,1615492709
416,san quintin,30.4833,-115.95,58.39,59,75,10.09,MX,1615492740
417,hami,42.8,93.45,47.05,32,0,1.5,CN,1615492741
418,tuatapere,-46.1333,167.6833,46.0,94,0,5.01,NZ,1615492741
419,zharkent,44.1628,80.0,38.66,81,85,5.99,KZ,1615492741
420,norsup,-16.0667,167.3833,79.07,78,100,8.03,VU,1615492741
421,karata,42.5949,46.3393,14.29,90,90,4.83,RU,1615492742
422,sao felix do xingu,-6.6447,-51.995,79.97,85,96,2.66,BR,1615492581
423,mont-saint-aignan,49.4631,1.0936,44.6,76,90,16.11,FR,1615492742
424,port hedland,-20.3167,118.5667,82.4,89,75,5.75,AU,1615492742
425,kawalu,-7.3817,108.2082,72.25,95,95,2.06,ID,1615492743
426,svolvaer,68.2342,14.5683,35.6,55,75,14.97,NO,1615492743
427,flinders,-34.5833,150.8552,70.0,94,94,1.01,AU,1615492743
428,airai,-8.9266,125.4092,59.76,95,99,1.39,TL,1615492743
429,caohai,26.8661,104.2841,46.96,94,85,3.91,CN,1615492744
430,north bend,43.4065,-124.2243,55.0,71,75,8.05,US,1615492744
431,simbahan,6.3032,120.5836,81.28,80,100,17.45,PH,1615492744
432,winona,43.9666,-91.7668,51.01,53,1,11.5,US,1615492745
433,xinmin,41.9908,122.8253,32.0,93,90,2.24,CN,1615492745
434,hamilton,39.1834,-84.5333,64.0,82,90,14.97,US,1615492745
435,pandan,14.0453,124.1694,77.9,85,100,13.11,PH,1615492745
436,coari,-4.085,-63.1414,79.79,92,49,5.17,BR,1615492746
437,andenes,69.3143,16.1194,32.0,64,40,25.32,NO,1615492746
438,papara,-3.9839,-38.7273,86.0,74,20,10.36,BR,1615492746
439,haslett,42.747,-84.4011,60.8,38,1,25.32,US,1615492747
440,kapuskasing,49.4169,-82.4331,19.4,79,100,14.97,CA,1615492747
441,lingyuan,41.24,119.4011,40.57,55,93,3.8,CN,1615492747
442,vestmannaeyjar,63.4427,-20.2734,36.59,62,94,6.53,IS,1615492747
443,thunder bay,48.4001,-89.3168,33.01,69,75,17.27,CA,1615492748
444,enshi,30.3,109.4833,51.69,93,62,0.58,CN,1615492748
445,regina,50.4501,-104.6178,17.6,53,20,8.05,CA,1615492619
446,hualmay,-11.0964,-77.6139,78.01,67,9,11.07,PE,1615492748
447,los llanos de aridane,28.6585,-17.9182,66.2,68,20,11.5,ES,1615492749
448,ortakoy,38.7373,34.0387,35.6,87,75,27.63,TR,1615492749
449,tessalit,20.1986,1.0114,70.57,12,0,10.51,ML,1615492749
450,salasu de sus,45.5167,22.95,33.1,71,100,7.07,RO,1615492749
451,khed brahma,24.0333,73.05,71.96,32,0,2.75,IN,1615492750
452,svetlogorsk,52.6333,29.7333,23.79,74,100,15.12,BY,1615492750
453,panama city,8.9936,-79.5197,93.2,40,20,14.97,PA,1615492624
454,wilmington,34.2257,-77.9447,72.0,43,40,10.36,US,1615492613
455,ban nahin,18.2418,104.2122,70.3,82,1,4.07,LA,1615492750
456,bowen,-20.0167,148.2333,71.6,94,2,4.61,AU,1615492751
457,agua dulce,18.1333,-94.1333,82.4,65,40,11.5,MX,1615492751
458,vanavara,60.34,102.2797,20.17,89,100,15.73,RU,1615492751
459,haapiti,-17.5667,-149.8667,86.0,70,40,4.61,PF,1615492752
460,tahe,52.3333,124.7333,13.64,90,0,4.07,CN,1615492752
461,innisfail,-17.5333,146.0333,74.86,92,55,4.23,AU,1615492752
462,husavik,66.0449,-17.3389,35.6,87,90,11.5,IS,1615492752
463,doka,13.5167,35.7667,87.39,16,0,12.24,SD,1615492753
464,lithakia,37.7167,20.8333,44.6,81,20,11.39,GR,1615492753
465,yinchuan,38.4681,106.2731,50.23,26,0,2.21,CN,1615492753
466,inhambane,-23.865,35.3833,80.6,74,20,6.91,MZ,1615492754
467,abu kamal,34.4506,40.9171,64.45,47,94,10.89,SY,1615492754
468,severnoye,56.3491,78.3619,10.76,89,100,15.41,RU,1615492754
469,tadine,-21.55,167.8833,75.88,78,2,13.27,NC,1615492754
470,panzhihua,26.5851,101.7128,51.01,57,1,0.47,CN,1615492755
471,leh,34.1667,77.5833,25.23,56,69,4.65,IN,1615492755
472,meulaboh,4.1363,96.1285,76.69,86,18,4.0,ID,1615492755
473,beaufort,5.3473,115.7455,78.8,89,20,2.53,MY,1615492756
474,saint anthony,45.0205,-93.218,46.0,49,1,14.97,US,1615492756
475,tahoua,14.8888,5.2692,95.0,15,0,2.3,NE,1615492756
476,skjervoy,70.0311,20.9714,28.4,64,0,21.85,NO,1615492756
477,carnot,4.9409,15.8665,74.41,78,79,5.37,CF,1615492757
478,sarila,25.7667,79.6833,72.68,19,1,4.34,IN,1615492757
479,nosy varika,-20.5833,48.5333,75.15,89,36,1.45,MG,1615492757
480,jati,24.3539,68.2671,70.18,87,0,8.5,PK,1615492758
481,menongue,-14.6585,17.691,66.87,65,72,3.15,AO,1615492758
482,chapais,49.7834,-74.8492,42.8,93,75,12.66,CA,1615492758
483,akureyri,65.6835,-18.0878,35.6,87,90,11.5,IS,1615492758
484,biak,-0.9131,122.8766,76.68,80,99,1.07,ID,1615492759
485,hammerfest,70.6634,23.6821,24.8,63,65,10.36,NO,1615492759
486,vaitape,-16.5167,-151.75,82.4,76,100,15.05,PF,1615492759
487,komsomolskiy,40.4272,71.7189,44.6,57,71,9.22,UZ,1615492759
488,mezen,65.8522,44.24,8.85,79,100,10.71,RU,1615492760
489,mayskiy,47.6931,40.1025,14.0,67,0,17.9,RU,1615492760
490,sakaide,34.3167,133.85,42.01,81,100,3.0,JP,1615492760
491,lagoa,39.05,-27.9833,56.07,63,85,10.96,PT,1615492761
492,terralba,39.7192,8.6392,51.8,87,20,5.75,IT,1615492761
493,chany,55.3121,76.7647,5.92,89,86,15.75,RU,1615492761
494,charleville-mezieres,49.7667,4.7167,41.0,84,100,11.01,FR,1615492761
495,palasa,18.7667,84.4167,71.98,80,0,6.33,IN,1615492762
496,poim,53.0264,43.1872,-1.53,97,0,5.61,RU,1615492762
497,valcele,45.85,25.6833,30.99,74,78,1.01,RO,1615492762
498,tukrah,32.5341,20.5791,55.58,63,89,17.85,LY,1615492763
499,darhan,49.4867,105.9228,31.05,65,0,7.94,MN,1615492763
500,camacha,33.0833,-16.3333,60.8,72,75,8.05,PT,1615492763
501,karwar,14.8,74.1333,76.91,84,1,5.88,IN,1615492763
502,lugoba,-6.45,38.3333,73.33,89,0,4.34,TZ,1615492764
503,olinda,-8.0089,-34.8553,82.4,65,40,10.36,BR,1615492764
504,hilton head island,32.2163,-80.7526,70.0,49,1,8.05,US,1615492599
505,kahului,20.8947,-156.47,75.99,83,40,0.81,US,1615492764
506,bay roberts,47.5999,-53.2648,36.0,78,100,8.01,CA,1615492765
507,honiara,-9.4333,159.95,75.9,91,100,2.75,SB,1615492504
508,talnakh,69.4865,88.3972,-29.18,96,93,7.27,RU,1615492765
509,college,64.8569,-147.8028,-2.99,59,75,17.27,US,1615492765
510,manitouwadge,49.1215,-85.8403,19.4,79,90,8.05,CA,1615492766
511,san carlos de bariloche,-41.1456,-71.3082,59.0,51,40,23.02,AR,1615492639
512,nabire,-3.3667,135.4833,75.16,91,81,2.89,ID,1615492766
513,megion,61.0296,76.1136,-2.2,84,90,6.71,RU,1615492766
514,preobrazheniye,42.9019,133.9064,33.51,60,100,6.22,RU,1615492767
515,katangli,51.7102,143.2326,11.5,84,22,13.27,RU,1615492767
516,la palma,33.8464,-118.0467,59.0,58,75,6.91,US,1615492767
517,niono,14.2526,-5.993,83.03,9,0,12.33,ML,1615492767
518,mnogovershinnyy,53.9353,139.9242,2.77,84,0,5.73,RU,1615492768
519,hofn,64.2539,-15.2082,38.53,69,95,16.31,IS,1615492768
520,borogontsy,62.6683,131.1683,-6.5,99,94,3.38,RU,1615492768
521,anito,12.4497,125.2886,76.05,94,100,11.5,PH,1615492769
522,baghdad,33.3406,44.4009,69.8,49,0,6.91,IQ,1615492769
523,hunucma,21.0167,-89.8667,91.0,48,75,11.5,MX,1615492769
524,dourbali,11.8091,15.8632,90.32,9,98,5.86,TD,1615492769
525,boyabat,41.4689,34.7667,33.17,88,96,5.44,TR,1615492770
526,saint-pierre,-21.3393,55.4781,75.2,57,20,4.61,RE,1615492770
527,kincardine,56.0667,-3.7167,41.0,75,75,17.27,GB,1615492770
528,nenjiang,49.1833,125.2167,17.46,81,0,2.51,CN,1615492771
529,keti bandar,24.1447,67.4497,74.05,83,0,11.18,PK,1615492771
530,pontianak,-0.0333,109.3333,77.0,94,75,3.44,ID,1615492587
531,ostrovnoy,68.0531,39.5131,11.64,82,66,28.54,RU,1615492771
532,buritizeiro,-17.3511,-44.9622,81.14,81,33,1.1,BR,1615492771
533,moengo,5.6167,-54.4,77.29,92,100,5.21,SR,1615492772
534,namibe,-15.1961,12.1522,75.47,77,25,5.48,AO,1615492772
535,marsa matruh,31.3525,27.2453,60.8,63,75,28.77,EG,1615492772
536,kosa,59.9445,54.9977,9.75,96,100,4.12,RU,1615492773
537,shumikha,55.2261,63.2961,-11.45,93,45,8.75,RU,1615492773
538,vao,-22.6667,167.4833,76.14,73,0,17.49,NC,1615492773
539,tera,14.0078,0.7531,83.57,12,13,5.28,NE,1615492773
540,strezhevoy,60.7333,77.5889,-2.2,84,90,6.71,RU,1615492774
541,pozo colorado,-23.4923,-58.7972,99.05,20,13,4.34,PY,1615492774
542,mugur-aksy,50.35,90.5,18.5,64,100,5.12,RU,1615492774
543,bhimunipatnam,17.8833,83.4333,77.0,88,20,2.3,IN,1615492774
544,bahia blanca,-38.7196,-62.2724,78.67,19,0,8.25,AR,1615492573
545,qinnan,33.2531,119.9133,44.83,93,100,7.78,CN,1615492775
546,zaozerne,45.1582,33.2787,30.58,64,0,17.74,UA,1615492775
547,diamantino,-14.4086,-56.4461,80.56,84,95,3.13,BR,1615492629
548,port-gentil,-0.7193,8.7815,82.4,83,40,9.57,GA,1615492775
549,canberra,-35.2835,149.1281,63.0,100,90,4.61,AU,1615492776
550,jumla,29.2747,82.1838,40.71,67,0,3.98,NP,1615492776
551,todos santos,23.45,-110.2167,70.0,70,100,5.99,MX,1615492776
552,mattawa,46.7379,-119.9028,53.01,40,1,3.44,US,1615492478
553,mogadishu,2.0371,45.3438,78.93,81,0,17.72,SO,1615492777
554,taree,-31.9,152.4667,68.0,94,90,1.14,AU,1615492777
555,misratah,32.3754,15.0925,58.42,66,14,10.09,LY,1615492777
556,malanje,-9.5402,16.341,67.8,86,86,3.13,AO,1615492778
557,srednekolymsk,67.45,153.6833,-11.09,86,66,2.8,RU,1615492778
558,morehead,37.2711,-87.1764,70.0,52,90,11.5,US,1615492709
