City ID,City,Lat,lng,Max Temp,Humidity,Cloudiness,Wind Speed,Country,Date
0,ilulissat,69.2167,-51.1,10.4,37,20,3.44,GL,1612521375
1,meulaboh,4.1363,96.1285,83.79,70,72,4.34,ID,1612521375
2,thompson,55.7435,-97.8558,-18.4,76,40,6.91,CA,1612521375
3,bandarbeyla,9.4942,50.8122,77.27,60,12,12.57,SO,1612521375
4,constitucion,-35.3333,-72.4167,58.42,87,94,4.18,CL,1612521375
5,hobart,-42.8794,147.3294,71.01,88,75,10.36,AU,1612521375
6,bonavista,48.6499,-53.1147,35.01,100,100,3.44,CA,1612521375
7,hamilton,39.1834,-84.5333,30.0,69,90,25.32,US,1612521229
8,cape town,-33.9258,18.4232,78.01,57,20,13.8,ZA,1612521375
9,namibe,-15.1961,12.1522,79.81,54,15,13.13,AO,1612521376
10,tuktoyaktuk,69.4541,-133.0374,-20.7,87,100,11.16,CA,1612521376
11,albany,42.6001,-73.9662,28.99,61,100,1.99,US,1612521329
12,rikitea,-23.1203,-134.9692,77.23,75,57,14.14,PF,1612521376
13,castro,-24.7911,-50.0119,61.0,88,4,5.86,BR,1612521376
14,dingle,10.9995,122.6711,77.2,88,47,8.57,PH,1612521376
15,khatanga,71.9667,102.5,-32.67,76,0,8.55,RU,1612521376
16,havre-saint-pierre,50.2334,-63.5986,33.8,93,90,8.05,CA,1612521376
17,bubaque,11.2833,-15.8333,75.07,52,24,13.06,GW,1612521376
18,antofagasta,-23.65,-70.4,62.6,77,20,1.14,CL,1612521376
19,ribeira grande,38.5167,-28.7,55.4,62,20,1.14,PT,1612521376
20,asau,46.4333,26.4,37.99,66,100,2.64,RO,1612521377
21,korla,41.7597,86.1469,35.8,68,1,6.93,CN,1612521377
22,kemptville,45.0168,-75.641,25.0,80,100,5.75,CA,1612521377
23,belmonte,-15.8631,-38.8828,78.8,78,20,10.36,BR,1612521377
24,dauphin,51.1494,-100.0502,-9.4,77,1,11.5,CA,1612521149
25,dikson,73.5069,80.5464,-27.9,83,2,15.88,RU,1612521188
26,tasiilaq,65.6145,-37.6368,19.4,63,20,3.44,GL,1612521377
27,ushuaia,-54.8,-68.3,46.4,76,75,26.46,AR,1612521377
28,busselton,-33.65,115.3333,68.0,56,62,3.0,AU,1612521377
29,tommot,58.9564,126.2925,-21.84,82,84,2.57,RU,1612521378
30,trinidad,-14.8333,-64.9,73.4,94,94,3.44,BO,1612521378
31,hilo,19.7297,-155.09,66.2,82,75,3.44,US,1612521378
32,ostrovnoy,68.0531,39.5131,14.83,92,99,19.53,RU,1612521378
33,ostersund,63.1792,14.6357,12.2,92,75,12.66,SE,1612521378
34,naron,43.5167,-8.1528,50.0,100,90,11.07,ES,1612521378
35,saint anthony,45.0205,-93.218,8.6,66,75,12.66,US,1612521378
36,havelock,34.8791,-76.9013,53.01,81,75,10.36,US,1612521378
37,victoria,22.2855,114.1577,71.01,59,0,8.25,HK,1612521125
38,argelia,2.2556,-77.2488,64.22,78,100,0.29,CO,1612521378
39,teseney,15.11,36.6575,84.22,14,0,14.72,ER,1612521379
40,lorengau,-2.0226,147.2712,79.43,83,100,6.15,PG,1612521379
41,awjilah,29.1081,21.2869,68.67,36,1,6.33,LY,1612521379
42,vaini,-21.2,-175.2,77.0,94,75,3.44,TO,1612521379
43,englehart,47.8169,-79.8664,21.2,73,90,8.05,CA,1612521379
44,saint-philippe,-21.3585,55.7679,89.6,55,20,10.36,RE,1612521379
45,severo-kurilsk,50.6789,156.125,10.38,88,74,7.09,RU,1612521379
46,ahipara,-35.1667,173.1667,62.33,90,100,5.35,NZ,1612521379
47,east london,-33.0153,27.9116,73.4,83,40,5.75,ZA,1612521102
48,rochegda,62.8,43.25,3.92,92,100,8.46,RU,1612521380
49,pevek,69.7008,170.3133,-13.9,87,100,4.97,RU,1612521380
50,djambala,-2.5447,14.7533,85.19,54,66,4.76,CG,1612521380
51,lebu,-37.6167,-73.65,57.45,93,16,8.23,CL,1612521380
52,sokoto,13.0609,5.239,88.16,12,5,18.23,NG,1612521380
53,marzuq,14.4,46.4667,81.68,15,0,11.12,YE,1612521380
54,skibotn,69.3913,20.2679,32.0,74,75,2.3,NO,1612521380
55,faanui,-16.4833,-151.75,81.05,71,20,8.1,PF,1612521380
56,ilhabela,-23.7781,-45.3581,80.01,78,71,5.5,BR,1612521380
57,norman wells,65.282,-126.8329,-32.8,68,75,16.11,CA,1612521380
58,mataura,-46.1927,168.8643,48.27,87,67,2.51,NZ,1612521380
59,yellowknife,62.456,-114.3525,-35.0,67,75,5.75,CA,1612521381
60,karatau,43.1667,70.4667,44.94,58,100,2.89,KZ,1612521381
61,san patricio,28.017,-97.5169,64.4,55,90,16.11,US,1612521381
62,avarua,-21.2078,-159.775,75.2,88,100,2.3,CK,1612521381
63,san ignacio,17.1561,-89.0714,62.01,100,20,0.89,BZ,1612521381
64,chuy,-33.6971,-53.4616,63.66,77,65,10.22,UY,1612521381
65,najran,17.4924,44.1277,82.4,16,0,3.44,SA,1612521381
66,butaritari,3.0707,172.7902,80.92,83,97,17.13,KI,1612521381
67,sooke,48.3746,-123.7276,48.2,87,96,40.29,CA,1612521381
68,codrington,-38.2667,141.9667,60.24,72,50,16.75,AU,1612521381
69,sorland,67.667,12.6934,32.0,86,75,8.05,NO,1612521381
70,bayir,37.2687,28.2167,64.4,63,0,9.22,TR,1612521382
71,victor harbor,-35.5667,138.6167,63.0,74,40,3.0,AU,1612521382
72,mingshui,36.7167,117.5,55.99,38,11,1.01,CN,1612521382
73,bonthe,7.5264,-12.505,86.94,51,18,6.06,SL,1612521382
74,guerrero negro,27.9769,-114.0611,57.0,82,4,12.1,MX,1612521230
75,jamestown,42.097,-79.2353,36.0,93,90,12.66,US,1612521274
76,saint george,37.1041,-113.5841,35.01,51,1,9.22,US,1612521382
77,bengkulu,-3.8004,102.2655,82.4,76,61,4.25,ID,1612521382
78,iqaluit,63.7506,-68.5145,15.8,86,75,16.11,CA,1612521382
79,naze,28.3667,129.4833,59.0,77,20,3.44,JP,1612521235
80,ucluelet,48.9329,-125.5528,46.99,93,100,5.99,CA,1612521383
81,nanchang,28.6833,115.8833,51.44,89,100,5.1,CN,1612521231
82,kijang,35.2442,129.2139,42.8,33,0,9.22,KR,1612521187
83,punta arenas,-53.15,-70.9167,46.4,76,0,16.11,CL,1612521117
84,sao gabriel da cachoeira,-0.1303,-67.0892,72.12,98,100,0.69,BR,1612521383
85,brae,60.3964,-1.353,35.6,55,40,23.02,GB,1612521383
86,roros,62.5747,11.3842,-16.6,69,0,3.44,NO,1612521383
87,hasaki,35.7333,140.8333,42.8,70,75,2.3,JP,1612521383
88,isangel,-19.55,169.2667,78.8,89,20,2.19,VU,1612521383
89,raudeberg,61.9875,5.1352,28.0,57,0,5.41,NO,1612521384
90,bluff,-46.6,168.3333,54.86,85,82,2.21,NZ,1612521384
91,bathsheba,13.2167,-59.5167,77.0,61,20,17.27,BB,1612521384
92,portland,45.5234,-122.6762,46.4,76,90,18.41,US,1612521222
93,dharchula,29.85,80.5333,51.8,51,100,3.87,IN,1612521384
94,bambous virieux,-20.3428,57.7575,87.01,70,75,14.97,MU,1612521384
95,along,28.1667,94.7667,67.53,45,1,0.22,IN,1612521384
96,port elizabeth,-33.918,25.5701,77.0,65,90,11.5,ZA,1612521384
97,kalmanhaza,47.8833,21.5833,42.8,87,100,2.3,HU,1612521384
98,guarapari,-20.6667,-40.4975,80.6,69,0,5.75,BR,1612521384
99,port blair,11.6667,92.75,81.32,74,2,10.71,IN,1612521181
100,grants,35.1473,-107.8514,17.6,67,1,8.05,US,1612521385
101,sao filipe,14.8961,-24.4956,71.98,72,100,14.09,CV,1612521385
102,georgetown,5.4112,100.3354,87.8,58,20,8.05,MY,1612521385
103,concepcion,-36.827,-73.0498,57.2,94,90,8.05,CL,1612521385
104,rabak,13.1809,32.74,85.03,13,40,16.51,SD,1612521385
105,tiksi,71.6872,128.8694,-14.35,89,100,17.07,RU,1612521385
106,clinton,42.587,-82.9199,28.99,80,90,29.93,US,1612521385
107,bairiki,1.3292,172.9752,80.6,78,75,5.75,KI,1612521385
108,buriti alegre,-18.14,-49.0403,72.46,88,100,2.71,BR,1612521385
109,hithadhoo,-0.6,73.0833,82.78,78,100,14.85,MV,1612521385
110,upernavik,72.7868,-56.1549,0.84,74,100,6.15,GL,1612521386
111,zurrieq,35.8311,14.4742,68.0,72,0,8.05,MT,1612521386
112,qaanaaq,77.484,-69.3632,-16.37,70,53,6.2,GL,1612521386
113,mahebourg,-20.4081,57.7,84.2,70,75,14.97,MU,1612521386
114,bredasdorp,-34.5322,20.0403,75.2,64,75,11.5,ZA,1612521386
115,kruisfontein,-34.0033,24.7314,82.99,53,16,8.01,ZA,1612521386
116,krasnyy chikoy,50.3643,108.7512,6.24,89,86,7.25,RU,1612521386
117,nouakchott,18.0858,-15.9785,66.2,68,99,19.57,MR,1612521387
118,jawhar,2.7809,45.5005,96.44,23,13,9.71,SO,1612521387
119,saqqez,36.2499,46.2735,42.3,81,100,7.16,IR,1612521387
120,honningsvag,70.9821,25.9704,32.0,74,75,8.05,NO,1612521387
121,bethel,41.3712,-73.414,30.99,80,90,5.19,US,1612521387
122,phenix city,32.471,-85.0008,55.4,94,90,3.44,US,1612521387
123,wageningen,51.9667,5.6667,46.99,93,90,6.91,NL,1612521309
124,cidreira,-30.1811,-50.2056,66.67,82,77,18.84,BR,1612521387
125,ergani,38.2653,39.7621,55.4,67,40,3.44,TR,1612521381
126,cacoal,-11.4386,-61.4472,74.01,96,100,2.06,BR,1612521387
127,ormara,25.2088,64.6357,72.64,35,0,12.93,PK,1612521387
128,miraflores,19.2167,-98.8083,51.8,43,1,2.3,MX,1612521388
129,sitka,57.0531,-135.33,33.8,93,75,5.75,US,1612521388
130,omsukchan,62.5333,155.8,-24.02,83,92,3.62,RU,1612521388
131,kautokeino,69.0125,23.0412,15.67,93,66,8.08,NO,1612521388
132,puerto ayora,-0.7393,-90.3518,75.99,96,87,1.99,EC,1612521388
133,san quintin,30.4833,-115.95,53.38,82,0,6.49,MX,1612521388
134,yulara,-25.2406,130.9889,80.6,36,64,6.91,AU,1612521388
135,makinsk,52.6292,70.4169,31.93,99,100,10.36,KZ,1612521389
136,kahului,20.8947,-156.47,66.2,82,90,9.22,US,1612521389
137,hermanus,-34.4187,19.2345,82.0,60,43,5.01,ZA,1612521389
138,paamiut,61.994,-49.6678,16.84,73,6,5.48,GL,1612521389
139,makakilo city,21.3469,-158.0858,66.2,77,40,3.44,US,1612521389
140,kodiak,57.79,-152.4072,23.0,80,40,6.91,US,1612521389
141,kavarna,43.4333,28.3333,50.0,71,75,11.5,BG,1612521389
142,marsa matruh,31.3525,27.2453,64.4,63,75,13.8,EG,1612521389
143,mehamn,71.0357,27.8492,24.8,93,75,6.91,NO,1612521389
144,aswan,24.0934,32.907,72.46,35,0,22.3,EG,1612521389
145,magdalena,14.1999,121.429,82.4,69,75,5.75,PH,1612521390
146,okha,53.5739,142.9478,-9.58,88,96,20.94,RU,1612521390
147,zhanaozen,43.3,52.8,58.51,41,23,23.11,KZ,1612521390
148,tokur,53.1333,132.9,-26.64,87,96,1.7,RU,1612521390
149,karratha,-20.7377,116.8463,82.09,77,64,15.19,AU,1612521390
150,yarmouth,41.7057,-70.2286,28.4,80,1,5.73,US,1612521390
151,sayyan,15.1718,44.3244,71.55,19,0,9.06,YE,1612521390
152,cabo san lucas,22.8909,-109.9124,70.0,50,33,1.01,MX,1612521180
153,koutiala,12.3917,-5.4642,94.73,10,20,12.21,ML,1612521390
154,port alfred,-33.5906,26.891,77.0,76,100,5.01,ZA,1612521390
155,katsuura,35.1333,140.3,50.0,71,75,9.22,JP,1612521391
156,lagoa,39.05,-27.9833,54.41,71,53,15.03,PT,1612521391
157,kenai,60.5544,-151.2583,16.0,86,90,10.36,US,1612521305
158,necochea,-38.5473,-58.7368,60.98,69,0,6.04,AR,1612521391
159,camacha,33.0833,-16.3333,55.4,71,40,26.46,PT,1612521171
160,linxia,35.6003,103.2064,32.4,67,0,1.63,CN,1612521391
161,hofn,64.2539,-15.2082,33.8,86,75,3.44,IS,1612521391
162,vanimo,-2.6741,141.3028,79.84,84,96,5.3,PG,1612521391
163,bose,45.4612,8.0137,50.0,98,98,1.7,IT,1612521391
164,atar,20.5169,-13.0499,62.6,20,70,13.8,MR,1612521391
165,twin falls,42.3505,-114.6445,35.6,69,90,16.11,US,1612521392
166,atuona,-9.8,-139.0333,78.42,78,5,13.47,PF,1612521392
167,geraldton,-28.7667,114.6,78.8,34,100,19.57,AU,1612521392
168,cherdyn,60.403,56.4787,25.03,98,100,4.34,RU,1612521392
169,teykovo,56.858,40.5369,9.19,94,97,11.18,RU,1612521392
170,nikolskoye,59.7035,30.7861,9.0,78,20,13.42,RU,1612521392
171,nouadhibou,20.931,-17.0347,66.2,72,0,8.05,MR,1612521392
172,nurota,40.5614,65.6886,64.4,25,50,18.41,UZ,1612521392
173,carnarvon,-24.8667,113.6333,80.6,78,90,17.27,AU,1612521392
174,clemson,34.6834,-82.8374,39.99,93,90,3.44,US,1612521393
175,chabua,27.4825,95.1736,80.6,57,0,4.61,IN,1612521393
176,vidim,56.4088,103.1106,6.4,94,100,5.06,RU,1612521393
177,boguchany,58.3814,97.4531,6.91,93,100,6.33,RU,1612521131
178,queretaro,21.0,-99.9167,46.4,46,1,5.08,MX,1612521393
179,kupang,-10.1667,123.5833,78.8,94,90,11.5,ID,1612521393
180,kununurra,-15.7667,128.7333,77.0,100,84,5.75,AU,1612521369
181,adrar,20.5022,-10.0711,67.46,49,91,11.5,MR,1612521394
182,gillette,44.2911,-105.5022,26.6,80,90,16.11,US,1612521394
183,mar del plata,-38.0023,-57.5575,64.99,93,0,0.49,AR,1612521394
184,gambela,8.25,34.5833,108.9,10,48,2.06,ET,1612521394
185,jieshi,22.8134,115.8257,71.01,68,0,3.0,CN,1612521394
186,wajima,37.4,136.9,41.0,75,75,9.22,JP,1612521394
187,santa cruz cabralia,-16.2781,-39.0247,78.8,78,20,10.36,BR,1612521394
188,coahuayana,18.7333,-103.6833,67.71,84,0,2.15,MX,1612521395
189,oranjestad,12.524,-70.027,78.8,83,40,13.8,AW,1612521395
190,usinsk,65.9939,57.5281,-2.83,92,100,13.65,RU,1612521395
191,provideniya,64.3833,-173.3,0.97,89,100,24.63,RU,1612521395
192,arraial do cabo,-22.9661,-42.0278,73.4,88,90,8.05,BR,1612521395
193,souillac,-20.5167,57.5167,84.2,70,75,14.97,MU,1612521395
194,brora,58.0099,-3.8518,37.4,93,75,16.11,GB,1612521395
195,matadi,-5.8167,13.45,80.33,80,100,4.81,CD,1612521395
196,sampit,-2.5333,112.95,81.61,72,25,1.23,ID,1612521396
197,nishihara,26.1842,127.7558,66.2,48,20,5.75,JP,1612521396
198,saldanha,-33.0117,17.9442,80.6,44,20,11.5,ZA,1612521347
199,cherskiy,68.75,161.3,-7.74,77,99,4.65,RU,1612521396
200,esperance,-33.8667,121.9,62.6,67,90,13.8,AU,1612521396
201,neiafu,-18.65,-173.9833,81.57,83,100,14.45,TO,1612521396
202,alugan,12.2188,125.4808,80.19,86,100,11.59,PH,1612521396
203,cabedelo,-6.9811,-34.8339,80.6,83,20,2.3,BR,1612521396
204,longyearbyen,78.2186,15.6401,19.4,73,75,3.44,SJ,1612521396
205,west odessa,31.8424,-102.4988,37.4,69,1,5.75,US,1612521347
206,beloha,-25.1667,45.05,96.46,39,71,16.51,MG,1612521397
207,chokurdakh,70.6333,147.9167,-16.87,87,100,13.91,RU,1612521397
208,praia da vitoria,38.7333,-27.0667,55.4,62,75,17.67,PT,1612521397
209,manyana,-23.4,21.7167,80.44,58,92,8.86,BW,1612521397
210,pasighat,28.0667,95.3333,71.37,39,3,0.22,IN,1612521397
211,aykhal,66.0,111.5,-33.54,80,35,3.53,RU,1612521190
212,zapolyarnyy,69.4154,30.8136,24.8,74,40,11.5,RU,1612521397
213,solotcha,54.7917,39.8442,12.9,94,100,13.71,RU,1612521397
214,plettenberg bay,-34.0527,23.3716,75.13,59,1,5.44,ZA,1612521397
215,loukhi,66.0764,33.0381,5.72,93,29,8.05,RU,1612521397
216,new norfolk,-42.7826,147.0587,71.01,86,100,2.24,AU,1612521398
217,toba tek singh,30.9743,72.4827,73.94,24,0,3.91,PK,1612521398
218,broken hill,-31.95,141.4333,73.4,23,0,14.97,AU,1612521251
219,marsabit,2.3284,37.9899,79.54,39,37,14.61,KE,1612521365
220,fare,-16.7,-151.0167,81.05,69,42,10.0,PF,1612521398
221,kavaratti,10.5669,72.642,81.82,74,60,11.5,IN,1612521398
222,kpandae,8.4689,-0.0113,97.03,32,23,3.11,GH,1612521398
223,nemuro,43.3236,145.575,8.6,72,20,1.14,JP,1612521398
224,high level,58.5169,-117.136,-25.6,75,1,6.91,CA,1612521398
225,krasnoselkup,65.7,82.4667,-26.5,85,82,6.26,RU,1612521398
226,pergamino,-33.89,-60.5736,61.0,85,0,4.0,AR,1612521398
227,redding,40.5865,-122.3917,51.8,43,1,6.91,US,1612521175
228,kushima,31.4583,131.2333,55.4,38,75,12.66,JP,1612521399
229,fortuna,40.5982,-124.1573,37.4,100,90,6.91,US,1612521399
230,port-gentil,-0.7193,8.7815,86.0,70,75,6.91,GA,1612521399
231,los llanos de aridane,28.6585,-17.9182,59.0,67,75,12.66,ES,1612521399
232,buin,-33.7333,-70.75,66.99,94,90,5.75,CL,1612521399
233,caravelas,-17.7125,-39.2481,81.86,68,12,9.78,BR,1612521399
234,brownsville,25.9018,-97.4975,64.0,94,90,4.61,US,1612521399
235,jasper,37.2001,-94.3502,27.0,68,1,4.61,US,1612521399
236,pirapora,-17.345,-44.9419,74.28,83,100,3.96,BR,1612521400
237,arona,28.0996,-16.681,62.6,51,40,4.61,ES,1612521400
238,uporovo,56.3109,66.2693,34.48,98,97,7.05,RU,1612521400
239,vila velha,-20.3297,-40.2925,80.6,69,0,5.75,BR,1612521400
240,wanlaweyn,2.6185,44.8938,96.13,21,7,9.22,SO,1612521400
241,cayenne,4.9333,-52.3333,77.0,94,75,5.75,GF,1612521400
242,uige,-7.6087,15.0613,73.4,88,75,4.61,AO,1612521400
243,sheregesh,52.9209,87.9869,17.47,95,98,1.28,RU,1612521400
244,srandakan,-7.9386,110.2506,80.08,83,100,7.81,ID,1612521400
245,redlands,34.0556,-117.1825,46.99,65,1,3.15,US,1612521357
246,khani,41.9563,42.9566,51.8,87,90,8.05,GE,1612521401
247,the valley,18.217,-63.0578,77.0,78,40,9.22,AI,1612521401
248,talnakh,69.4865,88.3972,-20.25,85,100,7.31,RU,1612521401
249,adelaide,-34.9333,138.6,64.99,59,40,21.85,AU,1612521224
250,biak,-0.9131,122.8766,78.67,80,99,1.5,ID,1612521401
251,gikongoro,-2.464,29.5739,73.45,59,85,2.33,RW,1612521401
252,dongsheng,39.8161,109.9776,30.67,78,0,14.88,CN,1612521401
253,grindavik,63.8424,-22.4338,37.4,87,75,32.21,IS,1612521401
254,huicheng,23.0385,116.2899,69.8,64,0,4.47,CN,1612521401
255,malindi,-3.2175,40.1191,89.6,55,20,13.8,KE,1612521190
256,tambovka,50.0969,128.0489,-9.4,77,20,4.47,RU,1612521402
257,luderitz,-26.6481,15.1594,82.29,34,0,24.94,NA,1612521402
258,mount gambier,-37.8333,140.7667,57.2,94,75,9.22,AU,1612521402
259,zabaykalsk,49.6333,117.3167,4.41,90,100,10.13,RU,1612521188
260,vuktyl,63.8567,57.3094,8.6,95,100,6.67,RU,1612521402
261,bilma,18.6853,12.9164,76.12,18,39,10.94,NE,1612521402
262,tigil,57.8,158.6667,-3.91,87,54,3.42,RU,1612521189
263,niquelandia,-14.4739,-48.4597,74.66,87,96,2.19,BR,1612521402
264,ballina,-28.8667,153.5667,73.4,83,73,6.91,AU,1612521403
265,torbay,47.6666,-52.7314,43.0,100,75,13.8,CA,1612521317
266,palmer,42.1584,-72.3287,24.01,93,90,5.57,US,1612521266
267,hami,42.8,93.45,31.48,84,97,1.52,CN,1612521403
268,leningradskiy,69.3833,178.4167,-15.39,86,100,12.93,RU,1612521403
269,kosh-agach,50.0,88.6667,8.37,89,84,1.36,RU,1612521403
270,timizart,36.8,4.2667,68.49,40,26,10.02,DZ,1612521403
271,lavrentiya,65.5833,-171.0,-1.52,91,100,16.44,RU,1612521403
272,barrow,71.2906,-156.7887,-18.4,69,90,11.5,US,1612521363
273,puerto baquerizo moreno,-0.9,-89.6,75.94,85,75,11.92,EC,1612521403
274,dukat,62.55,155.55,-25.89,85,98,3.15,RU,1612521129
275,unirea,44.15,23.1833,57.0,54,0,2.3,RO,1612521404
276,samarai,-10.6167,150.6667,82.11,77,17,4.45,PG,1612521404
277,vitina,43.2375,17.4839,51.8,87,75,2.3,BA,1612521404
278,lata,40.1629,-8.3327,52.0,85,100,3.0,PT,1612521404
279,watsa,3.0372,29.5355,93.56,23,94,6.46,CD,1612521404
280,ponta do sol,32.6667,-17.1,54.0,65,76,5.01,PT,1612521404
281,alasehir,38.3508,28.5172,57.99,10,0,10.0,TR,1612521404
282,narsaq,60.9167,-46.05,17.6,38,20,2.3,GL,1612521404
283,valreas,44.3837,4.9908,55.0,78,100,1.68,FR,1612521405
284,okhotsk,59.3833,143.3,-0.47,86,96,8.95,RU,1612521129
285,sinop,41.7711,34.8709,53.6,66,75,13.8,TR,1612521405
286,pisco,-13.7,-76.2167,69.8,83,0,3.44,PE,1612521268
287,vallenar,-28.5708,-70.7581,61.2,73,67,2.53,CL,1612521405
288,nakamura,32.9833,132.9333,45.07,70,84,2.91,JP,1612521405
289,minab,27.1467,57.0801,78.8,41,20,11.5,IR,1612521405
290,liuzhou,24.3126,109.3892,76.03,32,9,2.73,CN,1612521405
291,balabac,7.9868,117.0645,80.87,78,83,15.26,PH,1612521405
292,jumla,29.2747,82.1838,39.4,69,82,6.93,NP,1612521405
293,surt,31.2089,16.5887,69.46,38,33,5.77,LY,1612521405
294,saskylakh,71.9167,114.0833,-36.2,82,71,4.85,RU,1612521405
295,mikhaylovka,50.06,43.2379,42.84,80,100,11.23,RU,1612521406
296,chabahar,25.2919,60.643,72.16,52,0,8.66,IR,1612521406
297,cotonou,6.3654,2.4183,87.8,74,40,8.05,BJ,1612521406
298,san cristobal,7.7669,-72.225,65.79,83,63,3.31,VE,1612521406
299,emerald,-23.5333,148.1667,87.01,39,95,4.61,AU,1612521406
300,nome,64.5011,-165.4064,15.8,73,90,18.41,US,1612521406
301,klaksvik,62.2266,-6.589,35.6,60,92,11.5,FO,1612521406
302,kurchum,48.5722,83.6542,24.03,97,100,0.76,KZ,1612521406
303,vanavara,60.34,102.2797,-4.0,92,100,4.16,RU,1612521407
304,zhigansk,66.7697,123.3711,-38.58,75,61,5.39,RU,1612521407
305,alice springs,-23.7,133.8833,78.8,50,99,9.22,AU,1612521407
306,ugoofaaru,5.6667,73.0,82.22,71,77,11.18,MV,1612521407
307,richmond,37.5538,-77.4603,39.99,81,90,8.05,US,1612521281
308,lovozero,68.005,35.0117,11.39,95,99,6.98,RU,1612521407
309,ocean city,39.2776,-74.5746,42.8,65,90,9.22,US,1612521407
310,guhagar,17.4842,73.1929,83.12,45,21,12.37,IN,1612521407
311,nisia floresta,-6.0911,-35.2086,82.4,74,40,10.36,BR,1612521407
312,fengrun,39.8333,118.1167,43.92,51,1,5.48,CN,1612521408
313,veraval,20.9,70.3667,79.45,32,0,13.42,IN,1612521408
314,boa vista,2.8197,-60.6733,75.2,88,75,5.75,BR,1612521408
315,airai,-8.9266,125.4092,62.1,100,88,1.79,TL,1612521408
316,ancud,-41.8697,-73.8203,62.6,63,0,11.5,CL,1612521408
317,marihatag,8.7936,126.2969,79.75,85,35,7.96,PH,1612521408
318,vardo,70.3705,31.1107,26.6,93,75,27.63,NO,1612521408
319,yerbogachen,61.2767,108.0108,-18.22,87,93,2.08,RU,1612521408
320,romitan,39.9343,64.3814,66.2,26,86,18.41,UZ,1612521408
321,coxim,-18.5067,-54.76,77.14,85,100,4.29,BR,1612521408
322,cape coast,5.1053,-1.2466,84.06,74,14,8.19,GH,1612521166
323,kalaiya,27.0327,85.0022,78.6,33,4,10.18,NP,1612521408
324,sola,-13.8833,167.55,78.8,94,90,5.12,VU,1612521409
325,buala,-8.145,159.5921,80.71,81,77,7.92,SB,1612521409
326,tanhacu,-14.0214,-41.2481,77.59,70,6,6.49,BR,1612521409
327,nalut,30.3333,10.85,71.92,21,8,17.07,LY,1612521271
328,sao felix do xingu,-6.6447,-51.995,74.32,92,45,1.61,BR,1612521409
329,noumea,-22.2763,166.4572,81.0,100,90,2.3,NC,1612521409
330,port lincoln,-34.7333,135.8667,64.13,80,37,25.08,AU,1612521401
331,seoul,37.5683,126.9778,39.2,75,75,8.05,KR,1612521312
332,vestmanna,62.1564,-7.1664,35.6,60,69,11.5,FO,1612521409
333,noshiro,40.2039,140.0242,32.0,100,75,5.75,JP,1612521409
334,arlit,18.7369,7.3853,81.55,14,65,7.85,NE,1612521410
335,makushino,55.2103,67.2442,34.27,99,100,8.95,RU,1612521410
336,santa rosa,14.3122,121.1114,82.4,69,75,5.75,PH,1612521410
337,yaan,7.3833,8.5667,96.31,10,15,9.62,NG,1612521410
338,altay,47.8667,88.1167,20.1,90,98,1.05,CN,1612521410
339,waingapu,-9.6567,120.2641,79.39,81,80,9.71,ID,1612521410
340,kavieng,-2.5744,150.7967,78.33,90,99,12.08,PG,1612521410
341,chumikan,54.7183,135.315,-11.76,84,97,18.52,RU,1612521410
342,laguna,38.421,-121.4238,41.0,81,1,2.15,US,1612521236
343,itarema,-2.9248,-39.9167,82.8,69,76,15.73,BR,1612521411
344,herat,34.5,62.0,66.2,16,0,5.75,AF,1612521411
345,opuwo,-18.0607,13.84,88.39,27,85,7.63,NA,1612521411
346,palmeira das missoes,-27.8994,-53.3136,59.92,95,8,5.86,BR,1612521411
347,sao joao da barra,-21.6403,-41.0511,78.8,78,0,6.91,BR,1612521411
348,chulman,56.8479,124.9104,-25.82,84,55,3.91,RU,1612521411
349,tucuma,-0.1833,-50.05,78.64,89,83,5.39,BR,1612521411
350,nanortalik,60.1432,-45.2371,19.85,74,12,4.0,GL,1612521411
351,filadelfia,39.9523,-75.1638,39.0,60,90,5.75,US,1612521187
352,tineo,43.3376,-6.4145,48.99,93,75,3.44,ES,1612521412
353,anshan,41.1236,122.99,30.51,94,0,6.73,CN,1612521412
354,alta floresta,-9.8756,-56.0861,72.46,98,100,0.74,BR,1612521412
355,muzhi,65.3667,64.6667,-12.84,90,100,10.56,RU,1612521412
356,ponta delgada,37.7333,-25.6667,53.6,71,75,8.05,PT,1612521121
357,sambava,-14.2667,50.1667,85.23,64,3,11.1,MG,1612521412
358,mitu,1.1983,-70.1733,69.28,95,99,0.45,CO,1612521412
359,port hardy,50.6996,-127.4199,44.6,93,90,10.36,CA,1612521412
360,lagunas,-5.2269,-75.6753,71.42,97,100,1.23,PE,1612521412
361,roebourne,-20.7833,117.1333,82.54,74,59,15.37,AU,1612521412
362,san jose,37.3394,-121.895,46.0,65,1,3.44,US,1612521318
363,rocha,-34.4833,-54.3333,63.55,72,84,11.61,UY,1612521413
364,alberton,46.8168,-64.0654,30.2,93,73,12.66,CA,1612521413
365,alamogordo,32.8995,-105.9603,46.99,29,1,13.8,US,1612521413
366,labuhan,-6.8844,112.2051,79.93,83,100,18.23,ID,1612521413
367,quelimane,-17.8786,36.8883,89.6,66,40,3.44,MZ,1612521413
368,ust-kuyga,70.0167,135.6,-27.04,84,100,2.33,RU,1612521413
369,severo-yeniseyskiy,60.3725,93.0408,0.84,93,100,9.75,RU,1612521413
370,pavlodar,52.3,76.95,32.0,93,90,6.71,KZ,1612521413
371,santa fe,-31.6333,-60.7,68.0,80,0,2.55,AR,1612521413
372,coleraine,55.1333,-6.6667,41.0,100,75,2.3,GB,1612521414
373,huarmey,-10.0681,-78.1522,69.12,79,90,5.93,PE,1612521414
374,kutum,14.2,24.6667,73.96,18,0,17.49,SD,1612521414
375,golden,39.7555,-105.2211,34.0,32,1,21.85,US,1612521414
376,lompoc,34.6391,-120.4579,46.99,100,1,3.44,US,1612521414
377,pokaran,26.9167,71.9167,77.52,17,0,10.33,IN,1612521414
378,college,64.8569,-147.8028,-23.01,83,1,6.91,US,1612521414
379,mogwase,-25.185,27.2665,77.34,59,95,3.47,ZA,1612521414
380,nantucket,41.2835,-70.0995,35.01,100,1,6.91,US,1612521414
381,velikovechnoye,44.934,39.755,44.01,81,75,24.61,RU,1612521414
382,hibbing,47.4272,-92.9377,1.0,71,90,19.57,US,1612521415
383,ikongo,-21.8833,47.4333,88.93,53,40,5.26,MG,1612521415
384,mathbaria,22.2876,89.9593,80.94,26,30,1.77,BD,1612521415
385,sattahip,12.6664,100.9007,86.0,48,20,9.22,TH,1612521254
386,chernyshevskiy,63.0128,112.4714,-38.06,84,32,1.41,RU,1612521415
387,les cayes,18.2,-73.75,73.2,77,13,4.23,HT,1612521415
388,vila franca do campo,37.7167,-25.4333,53.6,71,75,8.05,PT,1612521415
389,mount isa,-20.7333,139.5,93.2,38,98,8.05,AU,1612521415
390,valparaiso,-33.0393,-71.6273,61.0,100,90,1.79,CL,1612521178
391,lazaro cardenas,17.9583,-102.2,70.74,87,12,4.92,MX,1612521415
392,sur,22.5667,59.5289,75.67,43,0,10.2,OM,1612521415
393,pacific grove,36.6177,-121.9166,42.8,75,1,3.44,US,1612521383
394,lufilufi,-13.8745,-171.5986,75.2,94,90,14.97,WS,1612521416
395,baylo,7.8539,126.0581,75.16,90,27,4.18,PH,1612521416
396,abu samrah,35.3029,37.1841,58.84,66,82,12.37,SY,1612521416
397,turukhansk,65.8167,87.9833,-19.41,88,100,2.57,RU,1612521416
398,kangaatsiaq,68.3065,-53.4641,7.41,80,100,8.52,GL,1612521416
399,kaitangata,-46.2817,169.8464,48.78,91,39,7.65,NZ,1612521416
400,taywarah,33.35,64.4167,40.14,48,0,5.5,AF,1612521416
401,garissa,-0.4536,39.6401,91.69,35,30,4.25,KE,1612521416
402,valvedditturai,9.8167,80.1667,78.12,73,49,13.62,LK,1612521416
403,bay roberts,47.5999,-53.2648,43.0,93,90,6.13,CA,1612521417
404,henties bay,-22.116,14.2845,70.0,80,67,7.0,NA,1612521417
405,tsiroanomandidy,-18.7667,46.0333,84.72,62,66,1.92,MG,1612521417
406,matara,5.9485,80.5353,80.2,76,59,2.75,LK,1612521417
407,nata,8.3333,-80.5167,75.0,54,100,8.01,PA,1612521417
408,urbano santos,-3.2078,-43.4036,78.48,77,62,6.53,BR,1612521417
409,lichinga,-13.3128,35.2406,77.0,57,75,6.91,MZ,1612521417
410,houma,29.5958,-90.7195,57.99,77,100,15.99,US,1612521417
411,svetlogorsk,52.6333,29.7333,17.08,93,68,10.07,BY,1612521417
412,wattegama,6.7989,81.4808,84.2,79,90,8.05,LK,1612521417
413,coswig,51.1333,13.5833,42.01,93,40,10.36,DE,1612521417
414,chicama,-7.8447,-79.1469,70.05,75,87,3.53,PE,1612521418
415,hambantota,6.1241,81.1185,84.2,79,90,8.05,LK,1612521418
416,srednekolymsk,67.45,153.6833,-15.83,88,98,4.07,RU,1612521418
417,micheweni,-4.9667,39.8333,84.87,63,57,10.76,TZ,1612521418
418,sortavala,61.7053,30.6918,8.01,90,100,11.34,RU,1612521418
419,anadyr,64.75,177.4833,8.6,72,90,15.66,RU,1612521418
420,panaba,21.2833,-88.2667,60.84,91,0,5.84,MX,1612521418
421,matamoros,25.5333,-103.25,62.01,27,0,2.98,MX,1612521418
422,waipawa,-41.4122,175.5153,57.99,88,90,9.22,NZ,1612521418
423,sabang,5.8933,95.3214,81.09,79,41,19.17,ID,1612521418
424,san fernando,15.0286,120.6898,82.4,69,75,4.61,PH,1612521418
425,biskamzha,53.4497,89.5272,13.12,92,100,2.24,RU,1612521419
426,lalsk,60.7415,47.5862,13.55,96,100,4.07,RU,1612521419
427,pemangkat,1.1667,108.9667,78.17,85,100,10.4,ID,1612521314
428,inirida,3.8653,-67.9239,72.21,98,99,2.26,CO,1612521419
429,mayo,38.8876,-76.5119,39.2,75,90,6.91,US,1612521419
430,almeirim,-1.5233,-52.5817,76.53,83,73,5.17,BR,1612521207
431,stokmarknes,68.5646,14.9108,33.8,80,75,11.5,NO,1612521419
432,kaseda,31.4167,130.3167,46.4,76,75,3.44,JP,1612521419
433,alpine,32.835,-116.7664,48.99,93,1,2.59,US,1612521420
434,oyama,36.3,139.8,53.01,56,75,5.75,JP,1612521420
435,cabra,37.4725,-4.4421,54.0,81,18,6.71,ES,1612521420
436,harper,4.375,-7.7169,84.0,75,20,7.92,LR,1612521420
437,mwingi,-0.9344,38.0601,85.71,39,3,7.74,KE,1612521420
438,verkhnyaya toyma,62.2349,44.9985,7.09,93,95,7.36,RU,1612521420
439,alta gracia,-31.6529,-64.4283,68.0,88,0,6.91,AR,1612521420
440,kovdor,67.5662,30.4758,6.82,95,20,4.76,RU,1612521420
441,itoman,26.1247,127.6694,66.2,63,20,4.61,JP,1612521420
442,northam,51.0333,-4.2167,48.0,93,51,5.99,GB,1612521421
443,kaeo,-35.1,173.7833,64.99,86,100,2.06,NZ,1612521421
444,bikaner,28.0167,73.3,75.0,20,0,8.68,IN,1612521421
445,tadine,-21.55,167.8833,78.01,86,0,10.69,NC,1612521421
446,gravelbourg,49.8834,-106.5512,1.4,78,98,12.66,CA,1612521421
447,orlik,52.5178,99.825,-0.2,83,100,3.6,RU,1612521421
448,dori,14.0354,-0.0345,91.13,11,7,16.6,BF,1612521421
449,independence,39.0911,-94.4155,30.0,74,1,9.22,US,1612521284
450,lao cai,22.4833,103.95,68.34,74,64,3.04,VN,1612521153
451,peniche,39.3558,-9.3811,54.0,84,96,11.99,PT,1612521421
452,berlevag,70.8578,29.0864,30.2,74,75,9.22,NO,1612521422
453,pabna,24.0,89.25,82.67,24,29,5.84,BD,1612521422
454,salalah,17.0151,54.0924,77.0,57,20,10.36,OM,1612521422
455,ulaangom,49.9811,92.0667,-4.67,91,51,1.25,MN,1612521422
456,karpathos,35.507,27.2132,64.4,72,20,26.46,GR,1612521422
457,flin flon,54.7682,-101.865,-12.19,88,100,11.12,CA,1612521143
458,muros,42.7762,-9.0603,52.0,96,47,10.87,ES,1612521328
459,ekibastuz,51.6667,75.3667,30.58,98,93,7.96,KZ,1612521422
460,galbshtadt,53.2264,78.9845,23.68,99,100,7.02,RU,1612521422
461,mashhad,36.297,59.6062,69.8,23,0,7.49,IR,1612521423
462,kendari,-3.945,122.4989,79.02,84,70,1.97,ID,1612521423
463,santa barbara,34.7333,-120.0343,46.99,100,1,5.08,US,1612521423
464,aksarka,66.5606,67.7975,-20.49,87,81,7.2,RU,1612521423
465,komsomolskiy,40.4272,71.7189,53.6,35,96,4.61,UZ,1612521423
466,asyut,27.181,31.1837,60.8,77,0,17.27,EG,1612521423
467,vostok,46.4856,135.8833,-2.6,89,100,4.32,RU,1612521423
468,kintinku,-5.8833,35.2333,80.6,57,40,11.5,TZ,1612521423
469,arroyo,41.6096,-4.7969,52.0,100,40,5.75,ES,1612521424
470,roald,62.5833,6.1333,26.6,50,0,13.8,NO,1612521424
471,gomel,52.4345,30.9754,15.8,79,75,13.42,BY,1612521424
472,taoudenni,22.6783,-3.9836,90.07,9,5,12.8,ML,1612521424
473,tirat karmel,32.7617,34.9719,66.2,72,20,11.5,IL,1612521424
474,corinto,37.9407,22.9573,60.01,63,100,8.99,GR,1612521424
475,inuvik,68.3499,-133.7218,-31.0,68,100,5.75,CA,1612521424
476,el alto,-4.2714,-81.2147,71.24,84,92,13.06,PE,1612521424
477,kingaroy,-26.5333,151.8333,75.0,68,71,3.44,AU,1612521424
478,yatou,37.15,122.3833,39.81,82,83,14.41,CN,1612521424
479,jiuquan,39.7432,98.5174,32.29,71,11,2.66,CN,1612521424
480,marquette,46.5333,-87.6335,19.0,77,100,5.01,US,1612521425
481,saint-augustin,51.226,-58.6502,33.35,91,100,17.11,CA,1612521425
482,russell,32.3502,-85.1999,55.4,94,90,7.74,US,1612521425
483,conceicao do araguaia,-8.2578,-49.2647,75.79,90,48,4.12,BR,1612521425
484,bayan,46.0833,127.4,10.65,96,100,6.31,CN,1612521425
485,gao,16.6362,1.637,86.59,12,23,17.4,ML,1612521425
486,bitterfeld,51.6167,12.3167,37.4,93,90,14.97,DE,1612521425
487,eluru,16.7,81.1,86.0,39,0,3.44,IN,1612521425
488,zemlyansk,51.9041,38.7334,23.0,80,90,20.13,RU,1612521426
489,dwarka,22.2394,68.9678,78.3,31,0,8.72,IN,1612521426
490,isa khel,36.6702,68.8443,61.77,28,4,5.68,AF,1612521426
491,khandbari,27.3747,87.2039,63.27,40,45,2.35,NP,1612521426
492,richards bay,-28.783,32.0377,83.52,67,51,11.07,ZA,1612521426
493,doha,25.2867,51.5333,77.0,73,20,10.36,QA,1612521338
494,sakakah,29.9697,40.2064,62.6,59,20,14.97,SA,1612521426
495,cockburn town,21.4612,-71.1419,75.34,80,29,18.41,TC,1612521426
496,alyangula,-13.8483,136.4192,80.6,94,75,4.61,AU,1612521426
497,mirnyy,62.5353,113.9611,-34.76,83,84,1.9,RU,1612521426
498,enumclaw,47.2043,-121.9915,46.0,91,100,17.0,US,1612521427
499,san bartolome de tirajana,27.9248,-15.5733,62.6,45,40,17.27,ES,1612521427
500,koungou,-12.7336,45.2042,87.8,66,90,5.75,YT,1612521427
501,glendive,47.1053,-104.7125,10.0,85,90,6.91,US,1612521427
502,saint-pierre,-21.3393,55.4781,89.6,55,20,10.36,RE,1612521427
503,soma,39.1855,27.6094,64.4,82,20,2.3,TR,1612521427
504,pekin,39.9075,116.3972,50.0,17,0,8.95,CN,1612521183
505,constantine,36.365,6.6147,53.6,54,0,2.3,DZ,1612521427
506,barcelos,41.5388,-8.6151,48.99,87,20,3.44,PT,1612521171
507,udachnyy,66.4167,112.4,-37.52,79,26,2.28,RU,1612521427
508,lishan,31.8576,113.2951,55.42,39,0,4.14,CN,1612521428
509,ola,59.5833,151.2833,-6.14,82,98,14.16,RU,1612521188
510,mersing,2.4312,103.8405,80.6,83,88,10.36,MY,1612521387
511,comodoro rivadavia,-45.8667,-67.5,75.2,43,0,8.05,AR,1612521325
512,axim,4.8699,-2.2405,83.89,74,48,8.9,GH,1612521428
513,vega de alatorre,20.0333,-96.6333,67.68,65,0,3.09,MX,1612521428
514,ashington,50.9331,-0.3909,46.99,100,75,2.3,GB,1612521428
515,sikandra,26.3667,79.65,75.96,38,22,5.1,IN,1612521428
516,ponferrada,42.5466,-6.5962,45.0,82,100,1.95,ES,1612521428
517,canutama,-6.5339,-64.3831,74.5,96,100,1.43,BR,1612521428
518,guilin,25.2819,110.2864,66.2,72,75,6.71,CN,1612521429
519,walvis bay,-22.9575,14.5053,71.6,64,0,8.05,NA,1612521190
520,farafangana,-22.8167,47.8333,85.95,69,61,13.35,MG,1612521429
521,paso del toro,19.0333,-96.1167,63.0,75,1,1.99,MX,1612521429
522,beringovskiy,63.05,179.3167,0.77,93,100,11.61,RU,1612521425
523,mackay,-21.15,149.2,80.6,69,40,10.36,AU,1612521186
524,gbadolite,4.2833,21.0167,103.96,26,96,2.24,CD,1612521429
525,bagdarin,54.4333,113.6,-3.77,84,99,4.21,RU,1612521429
526,puerto escondido,15.85,-97.0667,76.82,78,74,3.98,MX,1612521429
527,tura,25.5198,90.2201,73.6,42,11,4.97,IN,1612521430
528,north platte,41.1239,-100.7654,30.2,64,90,9.22,US,1612521430
529,aklavik,68.2191,-135.0107,-31.0,68,100,5.75,CA,1612521430
530,barranca,-10.75,-77.7667,68.74,80,100,5.35,PE,1612521430
531,balkhash,46.844,74.9804,19.4,93,90,4.47,KZ,1612521430
532,shahrud,36.4182,54.9763,53.82,40,25,13.62,IR,1612521430
533,flinders,-34.5833,150.8552,73.99,78,39,14.97,AU,1612521430
534,isparta,38.0,31.0,55.4,58,20,4.61,TR,1612521430
535,malinovoye ozero,51.6753,79.7825,30.61,98,98,5.66,RU,1612521430
536,kangalassy,62.3464,129.9628,-38.2,60,96,4.47,RU,1612521431
537,kuusamo,65.9667,29.1833,8.6,78,40,8.05,FI,1612521431
538,tuatapere,-46.1333,167.6833,52.05,89,92,2.84,NZ,1612521431
539,tautira,-17.7333,-149.15,82.0,65,68,1.99,PF,1612521431
540,liusha,27.2098,108.59,48.42,89,95,0.63,CN,1612521431
541,maceio,-9.6658,-35.7353,77.0,94,20,3.44,BR,1612521170
542,saquarema,-22.92,-42.5103,73.4,100,90,4.61,BR,1612521431
543,pestretsy,55.7531,49.6545,33.8,100,90,8.95,RU,1612521431
544,magdagachi,53.45,125.8,-13.86,89,98,4.36,RU,1612521431
545,bukachacha,52.9833,116.9167,-7.17,84,100,2.33,RU,1612521431
546,aden,12.7794,45.0367,76.35,66,15,14.34,YE,1612521344
547,goderich,43.7501,-81.7165,32.0,93,100,25.32,CA,1612521432
548,kadoma,34.7333,135.5833,48.2,61,75,4.61,JP,1612521321
549,port hawkesbury,45.6169,-61.3485,30.99,100,90,10.36,CA,1612521432
550,redcar,54.6166,-1.06,44.01,97,100,3.0,GB,1612521432
551,bonfim,3.0833,-59.95,75.09,79,100,9.6,BR,1612521432
552,gat,31.61,34.7642,66.0,100,53,6.49,IL,1612521432
553,tenenkou,14.4572,-4.9169,94.78,10,20,14.63,ML,1612521432
554,kieta,-6.2167,155.6333,81.01,79,95,6.4,PG,1612521432
555,grand gaube,-20.0064,57.6608,87.01,62,0,8.01,MU,1612521432
556,cedar city,37.6775,-113.0619,21.2,68,1,2.33,US,1612521348
557,misratah,32.3754,15.0925,70.3,35,24,10.2,LY,1612521433
558,touros,-5.1989,-35.4608,77.0,83,40,3.44,BR,1612521433
